SALE TYPE,SOLD DATE,PROPERTY TYPE,ADDRESS,CITY,STATE OR PROVINCE,ZIP OR POSTAL CODE,PRICE,BEDS,BATHS,LOCATION,SQUARE FEET,LOT SIZE,YEAR BUILT,DAYS ON MARKET,$/SQUARE FEET,HOA/MONTH,STATUS,NEXT OPEN HOUSE START TIME,NEXT OPEN HOUSE END TIME,URL (SEE https://www.redfin.com/buy-a-home/comparative-market-analysis FOR INFO ON PRICING),SOURCE,MLS#,FAVORITE,INTERESTED,LATITUDE,LONGITUDE
PAST SALE,July-11-2022,Single Family Residential,15961 Chamfers Farm Rd,Chesterfield,MO,63005,735000,4,2.5,Chesterfield Meadow One,4238,22651,1977,,173,29,Sold,,,https://www.redfin.com/MO/Chesterfield/15961-Chamfers-Farm-Rd-63005/home/63126961,MARIS,22034678,N,Y,38.6361756,-90.5787831
PAST SALE,May-17-2022,Single Family Residential,208 Lions Head Dr,Wildwood,MO,63005,724999,5,3.5,Lions Head,4700,158558,1989,,154,125,Sold,,,https://www.redfin.com/MO/Wildwood/208-Lions-Head-Dr-63005/home/93485772,MARIS,22019052,N,Y,38.645316,-90.675277
PAST SALE,March-19-2021,Single Family Residential,17605 Lance Leaf Ct,Wildwood,MO,63005,745000,5,4.5,Wildhorse Village J Three,4862,36155,1993,,153,67,Sold,,,https://www.redfin.com/MO/Wildwood/17605-Lance-Leaf-Ct-63005/home/93484883,MARIS,20084860,N,Y,38.6383022,-90.646295
PAST SALE,April-20-2021,Single Family Residential,2125 Riding Trail Dr,St Louis,MO,63005,800000,8,5.0,Sea Beauty Farm,4106,,1996,,195,,Sold,,,https://www.redfin.com/MO/Chesterfield/2125-Riding-Trail-Dr-63005/home/93495546,MARIS,21016293,N,Y,38.6312838,-90.5820367
PAST SALE,June-16-2021,Single Family Residential,16064 Wilson Manor Dr,Chesterfield,MO,63005,835000,4,4.5,Wilson Manors,5361,22651,1987,,156,,Sold,,,https://www.redfin.com/MO/Chesterfield/16064-Wilson-Manor-Dr-63005/home/93484641,MARIS,21027500,N,Y,38.6390568,-90.5843662
PAST SALE,May-8-2020,Single Family Residential,711 Wycliffe Place Ct,Wildwood,MO,63005,799000,5,4.5,Wycliffe,6233,17424,2005,,128,,Sold,,,https://www.redfin.com/MO/Wildwood/711-Wycliffe-Place-Ct-63005/home/93320598,MARIS,20031247,N,Y,38.622689,-90.620453
PAST SALE,October-16-2020,Single Family Residential,2156 Riding Trail Dr,Chesterfield,MO,63005,775000,6,4.5,Sea Beauty Farm,5210,22216,1996,,149,,Sold,,,https://www.redfin.com/MO/Chesterfield/2156-Riding-Trail-Dr-63005/home/93495513,MARIS,20081934,N,Y,38.6316668,-90.5833124
PAST SALE,August-27-2020,Single Family Residential,232 Fox Chapel Ln,Chesterfield,MO,63005,819900,4,3.5,Forest Hills Club Estates,5191,69696,1978,,158,42,Sold,,,https://www.redfin.com/MO/Chesterfield/232-Fox-Chapel-Ln-63005/home/62696884,MARIS,20044921,N,Y,38.6082839,-90.5881195
PAST SALE,August-3-2021,Single Family Residential,2605 Valley Rd,Wildwood,MO,63005,729000,5,5.5,Oaks At Forest Hills The,7000,24394,2005,,104,,Sold,,,https://www.redfin.com/MO/Wildwood/2605-Valley-Rd-63005/home/62689577,MARIS,21027219,N,Y,38.6129823,-90.5992152
PAST SALE,July-31-2019,Single Family Residential,478 Pine Bnd,Wildwood,MO,63005,849000,4,3.5,Pine Creek,3816,46609,1996,,222,31,Sold,,,https://www.redfin.com/MO/Wildwood/478-Pine-Bend-Dr-63005/home/62724457,MARIS,19046717,N,Y,38.6430771,-90.6569623
PAST SALE,December-19-2018,Single Family Residential,941 Silver Buck Ln,Chesterfield,MO,63304,787397,4,3.5,Bur Oaks,3437,,,,229,,Sold,,,https://www.redfin.com/MO/Chesterfield/941-Silver-Buck-Ln-63005/home/148530875,MARIS,18095252,N,Y,38.6566665,-90.6402034
PAST SALE,January-26-2021,Single Family Residential,16805 Pacland Pl,Chesterfield,MO,63005,775000,4,4.0,Hennemeyer Acres,3843,132858,1984,,202,,Sold,,,https://www.redfin.com/MO/Chesterfield/16805-Pacland-Pl-63005/home/93484894,MARIS,20044023,N,Y,38.6475574,-90.6163826
PAST SALE,November-24-2020,Single Family Residential,17706 Chaistain Ct,Chesterfield,MO,63005,750000,5,4.5,Wildhorse Village,6528,27007,1989,,115,,Sold,,,https://www.redfin.com/MO/Chesterfield/17706-Chaistain-Ct-63005/home/93485532,MARIS,20074909,N,Y,38.6485651,-90.6294982
PAST SALE,August-5-2020,Single Family Residential,1225 Fienup Lake Dr,Chesterfield,MO,63005,770610,6,5.0,Fienup Farms,3546,,,,217,125,Sold,,,https://www.redfin.com/MO/Chesterfield/1225-Fienup-Lake-Dr-63005/home/172663761,MARIS,20055918,N,Y,38.6592397,-90.5979331
PAST SALE,,Single Family Residential,934 Silver Buck Ln,Chesterfield,MO,63005,740000,4,3.5,,4442,14985,2017,,167,,,,,https://www.redfin.com/MO/Chesterfield/934-Silver-Buck-Ln-63005/home/140414712,,,N,Y,38.6560384,-90.6389629
PAST SALE,March-27-2020,Single Family Residential,2710 Wynncrest Manor Dr,Wildwood,MO,63005,759000,5,4.5,Wynncrest Two,6125,24829,2002,,124,38,Sold,,,https://www.redfin.com/MO/Wildwood/2710-Wynncrest-Manor-Dr-63005/home/93317669,MARIS,20006131,N,Y,38.6100795,-90.6058001
PAST SALE,,Single Family Residential,16913 Lewis Spring Farms Rd,Wildwood,MO,63005,775000,5,4.5,,6560,130680,1995,,118,,,,,https://www.redfin.com/MO/Wildwood/16913-Lewis-Spring-Farms-Rd-63005/home/62699527,,,N,Y,38.6373849,-90.6188251
PAST SALE,July-23-2020,Single Family Residential,344 Wild Horse Canyon Dr,Wildwood,MO,63005,775000,4,3.5,Wild Horse Canyon,3409,152460,1993,,227,,Sold,,,https://www.redfin.com/MO/Wildwood/344-Wild-Horse-Canyon-Dr-63005/home/62693441,MARIS,20043059,N,Y,38.6409893,-90.6640013
PAST SALE,November-5-2020,Single Family Residential,16412 Quiet Creek Ct,Clarkson Valley,MO,63005,710000,4,4.0,Kehrs Mill Trails 2,4658,91476,1977,,152,92,Sold,,,https://www.redfin.com/MO/Chesterfield/16412-Quiet-Creek-Ct-63005/home/93484781,MARIS,20081220,N,Y,38.6380465,-90.5978651
PAST SALE,June-14-2019,Single Family Residential,17600 Burnham Ct,Chesterfield,MO,63005,850000,6,4.5,Wildhorse Village C,5092,24829,1991,,167,,Sold,,,https://www.redfin.com/MO/Chesterfield/17600-Burnham-Ct-63005/home/93485537,MARIS,19046100,N,Y,38.6466781,-90.6277082
PAST SALE,,Single Family Residential,310 Oak Stand Ct,Chesterfield,MO,63005,775000,4,3.5,,3715,9583,2013,,209,,,,,https://www.redfin.com/MO/Chesterfield/310-Oak-Stand-Ct-63005/home/93329793,,,N,Y,38.6583109,-90.5780573
PAST SALE,July-14-2021,Single Family Residential,17601 Lisa Valley Ct,Wildwood,MO,63005,795000,4,4.5,Highland of Chesterfield,5004,22216,1997,,159,76,Sold,,,https://www.redfin.com/MO/Wildwood/17601-Lisa-Valley-Ct-63005/home/93496365,MARIS,21050218,N,Y,38.6336991,-90.6300958
PAST SALE,July-10-2019,Single Family Residential,7 Fairlake Dr,Chesterfield,MO,63005,714000,5,3.5,Forest Hills Country Club Estates,3800,56628,1970,,188,42,Sold,,,https://www.redfin.com/MO/Chesterfield/7-Fairlake-Dr-63005/home/93505738,MARIS,19051236,N,Y,38.6142657,-90.5885633
PAST SALE,January-20-2020,Single Family Residential,1322 Countryside Forrest,Chesterfield,MO,63005,799900,4,4.5,Countryside At Chesterfield Three,5342,22216,1995,,150,,Sold,,,https://www.redfin.com/MO/Chesterfield/1322-Countryside-Forrest-Ct-63005/home/93476724,MARIS,20004762,N,Y,38.6531831,-90.6214898
PAST SALE,March-4-2021,Single Family Residential,17406 Windridge Estates Ct,Chesterfield,MO,63005,789000,4,4.5,Windridge Estates,5102,22651,1999,,155,83,Sold,,,https://www.redfin.com/MO/Chesterfield/17406-Windridge-Estates-Ct-63005/home/93477311,MARIS,21000675,N,Y,38.6584868,-90.6254132
PAST SALE,April-15-2020,Single Family Residential,1106 Horse Run Ct,Chesterfield,MO,63005,749900,4,3.5,Greystone Four,3872,22651,1997,,194,,Sold,,,https://www.redfin.com/MO/Chesterfield/1106-Horse-Run-Ct-63005/home/62748171,MARIS,20014169,N,Y,38.6485154,-90.6364451
PAST SALE,July-31-2020,Single Family Residential,26 Forest Clb,Chesterfield,MO,63005,755000,4,3.5,Forest Hills Club Estates Area 5a,2835,43124,1975,,266,,Sold,,,https://www.redfin.com/MO/Chesterfield/26-Forest-Club-Dr-63005/home/93506220,MARIS,20063653,N,Y,38.6183261,-90.593285
PAST SALE,April-29-2022,Single Family Residential,1138 Wildhorse Parkway Dr,Chesterfield,MO,63005,775000,6,5.5,Wildhorse Village A,5376,40946,1994,,144,83,Sold,,,https://www.redfin.com/MO/Chesterfield/1138-Wildhorse-Parkway-Dr-63005/home/93477013,MARIS,22009037,N,Y,38.6509263,-90.6299293
PAST SALE,May-17-2021,Single Family Residential,1537 Honey Locust Ct,Wildwood,MO,63005,749900,5,4.5,Wildhorse Village I One,6236,23522,1993,,120,67,Sold,,,https://www.redfin.com/MO/Wildwood/1537-Honey-Locust-Ct-63005/home/62761936,MARIS,21008135,N,Y,38.6377129,-90.6341497
PAST SALE,October-30-2019,Single Family Residential,16947 Pine Summit Dr,Chesterfield,MO,63005,779161,4,4.5,Fienup Farms,3410,,,,228,125,Sold,,,https://www.redfin.com/MO/Chesterfield/16947-Pine-Summit-Dr-63005/home/169601601,MARIS,19079844,N,Y,38.656572,-90.600033
PAST SALE,June-16-2022,Single Family Residential,16353 Wilson Farm,Chesterfield,MO,63005,725000,4,3.5,Wilson Farm Estates 1,3747,23958,1983,,193,29,Sold,,,https://www.redfin.com/MO/Chesterfield/16353-Wilson-Farm-Dr-63005/home/93495553,MARIS,22020396,N,Y,38.6343794,-90.5857344
PAST SALE,June-30-2020,Single Family Residential,16935 Pine Summit Dr,Chesterfield,MO,63005,768329,3,3.5,Fienup Farms,2572,,,,299,125,Sold,,,https://www.redfin.com/MO/Chesterfield/16935-Pine-Summit-Dr-63005/home/172331410,MARIS,20043756,N,Y,38.6565755,-90.5992152
PAST SALE,April-5-2023,Single Family Residential,1004 Yellowwood Ct,Chesterfield,MO,63005,799900,5,3.5,Wildhorse,5020,30492,1995,,159,83,Sold,,,https://www.redfin.com/MO/Chesterfield/1004-Yellowwood-Ct-63005/home/62707992,MARIS,22067258,N,Y,38.6550016,-90.6337794
PAST SALE,June-2-2022,Single Family Residential,225 Dejournet Dr,Chesterfield,MO,63005,695000,5,3.5,Chesterfield Farms,2551,8712,1995,,272,,Sold,,,https://www.redfin.com/MO/Chesterfield/225-Dejournet-Dr-63005/home/93476567,MARIS,22034995,N,Y,38.6604669,-90.5907878
PAST SALE,June-15-2018,Single Family Residential,270 Herworth Dr,Chesterfield,MO,63005,830000,4,3.5,Forest Hills Club Estates Area 7-A,4693,42689,1981,,177,,Sold,,,https://www.redfin.com/MO/Chesterfield/270-Herworth-Dr-63005/home/93631062,MARIS,19003033,N,Y,38.6128289,-90.5971438
PAST SALE,January-6-2021,Single Family Residential,7 Zelkova Ct,Wildwood,MO,63005,699000,5,4.5,Wildhorse Village E Two,5459,31363,1995,,128,67,Sold,,,https://www.redfin.com/MO/Wildwood/7-Zelkova-Ct-63005/home/93485383,MARIS,20081895,N,Y,38.6410917,-90.6255516
PAST SALE,June-25-2021,Single Family Residential,17631 Myrtlewood Dr,Wildwood,MO,63005,799900,5,6.0,Wildhorse Village I Two Lts 240 &,4957,23522,1995,,161,,Sold,,,https://www.redfin.com/MO/Wildwood/17631-Myrtlewood-Dr-63005/home/93485320,MARIS,21029750,N,Y,38.6365601,-90.6351863
PAST SALE,December-11-2019,Single Family Residential,277 Herworth,Chesterfield,MO,63005,779000,4,3.0,Forest Hills Club Estates Area 7-A,2995,44431,1977,,260,42,Sold,,,https://www.redfin.com/MO/Chesterfield/277-Herworth-Dr-63005/home/93505640,MARIS,19083000,N,Y,38.6133245,-90.596404
PAST SALE,August-25-2020,Single Family Residential,17704 Sugarberry Ct,Chesterfield,MO,63005,749000,4,4.0,Wildhorse Village A,5036,29185,1991,,149,67,Sold,,,https://www.redfin.com/MO/Chesterfield/17704-Sugarberry-Ct-63005/home/93477048,MARIS,20051017,N,Y,38.6514007,-90.633113
PAST SALE,October-20-2020,Single Family Residential,16468 Horseshoe Ridge Rd,Chesterfield,MO,63005,749900,3,3.5,Kehrs Mill Trails 3,4507,91040,1977,,166,92,Sold,,,https://www.redfin.com/MO/Chesterfield/16468-Horseshoe-Ridge-Rd-63005/home/62729638,MARIS,20060199,N,Y,38.6441085,-90.6021006
PAST SALE,July-13-2022,Single Family Residential,1135 Eagle Creek Rd,Wildwood,MO,63005,750000,4,3.5,Valley Farms,4520,169448,1978,,166,25,Sold,,,https://www.redfin.com/MO/Wildwood/1135-Eagle-Creek-Rd-63005/home/62741679,MARIS,22030253,N,Y,38.6204978,-90.6081124
PAST SALE,August-30-2022,Single Family Residential,1245 Walnut Hill Farm Dr,Chesterfield,MO,63005,849900,4,3.5,Walnut Hill Farm,4400,235660,1975,,193,,Sold,,,https://www.redfin.com/MO/Chesterfield/1245-Walnut-Hill-Farm-Dr-63005/home/68995266,MARIS,22049783,N,Y,38.6507108,-90.5926314
PAST SALE,,Single Family Residential,15889 Whitemarsh Cir,Chesterfield,MO,63005,699000,4,4.5,,3060,34848,1980,,228,,,,,https://www.redfin.com/MO/Chesterfield/15889-Whitemarsh-Cir-63005/home/62741346,,,N,Y,38.6394682,-90.5757145
PAST SALE,August-5-2022,Single Family Residential,1487 Carriage Crossing Ln,Chesterfield,MO,63005,685000,5,3.5,Country Place,2914,30056,1988,,235,,Sold,,,https://www.redfin.com/MO/Chesterfield/1487-Carriage-Crossing-Ln-63005/home/93484912,MARIS,22038816,N,Y,38.6451435,-90.6118865
PAST SALE,December-15-2022,Single Family Residential,1590 Wildhorse Parkway Dr,Wildwood,MO,63005,739989,5,3.5,Wildhorse Village J Record One,5274,20473,1995,,140,83,Sold,,,https://www.redfin.com/MO/Wildwood/1590-Wildhorse-Parkway-Dr-63005/home/93485218,MARIS,22071079,N,Y,38.6387419,-90.6408143
PAST SALE,August-16-2021,Single Family Residential,328 Wild Horse Canyon Dr,Wildwood,MO,63005,749900,5,4.5,Wild Horse Canyon,5073,131551,2005,,148,100,Sold,,,https://www.redfin.com/MO/Wildwood/328-Wild-Horse-Canyon-Dr-63005/home/93485972,MARIS,21042207,N,Y,38.640159,-90.665928
PAST SALE,August-31-2022,Single Family Residential,17756 Greystone Terrace Dr,Wildwood,MO,63005,700000,5,4.5,Wildhorse Village G,5229,31799,1993,,134,83,Sold,,,https://www.redfin.com/MO/Wildwood/17756-Greystone-Terrace-Dr-63005/home/93485446,MARIS,22047953,N,Y,38.6441632,-90.6382964
PAST SALE,February-18-2022,Single Family Residential,17606 Lasiandra Dr,Wildwood,MO,63005,850000,5,3.5,Wildhorse Village L Two,5100,27443,1996,,167,67,Sold,,,https://www.redfin.com/MO/Wildwood/17606-Lasiandra-Dr-63005/home/93496345,MARIS,22001076,N,Y,38.6333584,-90.636297
PAST SALE,December-3-2021,Single Family Residential,17618 Ailanthus,Wildwood,MO,63005,650000,4,4.5,Wildhorse Village F,4106,31799,1995,,158,75,Sold,,,https://www.redfin.com/MO/Wildwood/17618-Ailanthus-Dr-63005/home/93485426,MARIS,21079432,N,Y,38.6384089,-90.630429
PAST SALE,July-22-2022,Single Family Residential,2227 Samuel Stuart Ct,Chesterfield,MO,63005,695000,4,4.0,Pleasant Valley Forest 2,5478,52272,1982,,127,,Sold,,,https://www.redfin.com/MO/Chesterfield/2227-Samuel-Stuart-Ct-63005/home/93495695,MARIS,22039927,N,Y,38.6251882,-90.6004729
PAST SALE,August-31-2021,Single Family Residential,1225 Wildhorse Mdws,Chesterfield,MO,63005,679000,4,4.0,Spring Hill Bluffs,3560,16553,1999,,191,,Sold,,,https://www.redfin.com/MO/Chesterfield/1225-Wildhorse-Meadows-Dr-63005/home/62741218,MARIS,21049663,N,Y,38.6572418,-90.6129781
PAST SALE,May-31-2022,Single Family Residential,1824 Kehrswood Dr,Chesterfield,MO,63005,650000,5,4.0,Kehrswood 1,4610,43996,1988,,141,25,Sold,,,https://www.redfin.com/MO/Chesterfield/1824-Kehrswood-Dr-63005/home/83504367,MARIS,22023555,N,Y,38.6325141,-90.5948355
PAST SALE,December-5-2022,Single Family Residential,16830 Kehrsbrooke Ct,Chesterfield,MO,63005,749900,4,3.0,Kehrs Mill Estates,5584,44867,1986,,134,63,Sold,,,https://www.redfin.com/MO/Chesterfield/16830-Kehrsbrooke-Ct-63005/home/93495598,MARIS,22064047,N,Y,38.6273747,-90.6055781
PAST SALE,October-29-2020,Single Family Residential,2016 Mulberry Hill Ln,Wildwood,MO,63005,725000,4,5.0,Deer Ridge,5037,133729,1994,,144,,Sold,,,https://www.redfin.com/MO/Wildwood/2016-Mulberry-Hill-Ln-63005/home/93495687,MARIS,20065553,N,Y,38.6331247,-90.618677
PAST SALE,May-28-2021,Single Family Residential,703 Wycliffe Place Ct,Wildwood,MO,63005,764900,5,4.5,WYCLIFFE,4615,23087,2005,,166,63,Sold,,,https://www.redfin.com/MO/Wildwood/703-Wycliffe-Place-Ct-63005/home/62701452,MARIS,21012773,N,Y,38.623226,-90.619972
PAST SALE,October-22-2020,Single Family Residential,16343 Champion Dr,Chesterfield,MO,63005,825000,4,4.5,Sea Beauty Farm,5373,20909,1996,,154,67,Sold,,,https://www.redfin.com/MO/Chesterfield/16343-Champion-Dr-63005/home/93495499,MARIS,20059388,N,Y,38.6324789,-90.5847914
PAST SALE,October-8-2020,Single Family Residential,36 Chesterfield Lakes Rd,Chesterfield,MO,63005,799000,4,3.5,Chesterfield Lakes,5580,131551,1977,,143,79,Sold,,,https://www.redfin.com/MO/Chesterfield/36-Chesterfield-Lakes-Rd-63005/home/93485044,MARIS,20067132,N,Y,38.6423068,-90.5857528
PAST SALE,November-29-2021,Single Family Residential,1731 Baxter Forest Valley Ct,Chesterfield,MO,63005,699900,4,4.5,The Forest,3630,14810,1990,,193,54,Sold,,,https://www.redfin.com/MO/Chesterfield/1731-Baxter-Forest-Valley-Ct-63005/home/93485136,MARIS,21071525,N,Y,38.6428578,-90.5778957
PAST SALE,December-1-2021,Single Family Residential,14 Crown Mnr,Chesterfield,MO,63005,675000,4,4.5,Forest Hills Club Estates Area 5-B,3827,36155,1975,,176,,Sold,,,https://www.redfin.com/MO/Chesterfield/14-Crown-Manor-Dr-63005/home/93506338,MARIS,21065449,N,Y,38.6196715,-90.5947597
PAST SALE,January-7-2022,Single Family Residential,2620 Chatham Pl,Wildwood,MO,63005,635000,4,4.5,Chatham Place,3461,24394,1991,,183,27,Sold,,,https://www.redfin.com/MO/Wildwood/2620-Chatham-Place-Ct-63005/home/93507043,MARIS,21083978,N,Y,38.6104292,-90.5986195
PAST SALE,November-21-2022,Single Family Residential,2660 Wynncrest Ridge Dr,Wildwood,MO,63005,775000,4,3.5,Wynncrest,5234,28314,2006,,148,63,Sold,,,https://www.redfin.com/MO/Wildwood/2660-Wynncrest-Ridge-Dr-63005/home/93325656,MARIS,22066520,N,Y,38.607931,-90.6091299
PAST SALE,March-10-2021,Single Family Residential,1 Wilson Ridge Ct,Chesterfield,MO,63005,725000,4,3.5,Wilson Farm Estates,4053,25265,1988,,179,29,Sold,,,https://www.redfin.com/MO/Chesterfield/1-Wilson-Ridge-Ct-63005/home/93495440,MARIS,21005137,N,Y,38.6340971,-90.5889331
PAST SALE,April-29-2022,Single Family Residential,17813 Wilderness Cliff Ct,Wildwood,MO,63005,699000,4,4.5,Wilderness Trails,3435,18731,1996,,203,,Sold,,,https://www.redfin.com/MO/Wildwood/17813-Wilderness-Cliff-Ct-63005/home/93485700,MARIS,22010666,N,Y,38.6418902,-90.649406
PAST SALE,October-1-2021,Single Family Residential,17609 Lisa Valley Ct,Wildwood,MO,63005,770000,4,5.5,Highlands Of Chesterfield Highland,5074,27878,1997,,152,76,Sold,,,https://www.redfin.com/MO/Wildwood/17609-Lisa-Valley-Ct-63005/home/62757478,MARIS,21051890,N,Y,38.6336326,-90.6310398
PAST SALE,March-8-2021,Single Family Residential,16742 Kehrs Mill Estates Dr,Chesterfield,MO,63005,697500,4,3.5,Kehrs Mill Estates 3,5200,45302,1985,,134,63,Sold,,,https://www.redfin.com/MO/Chesterfield/16742-Kehrs-Mill-Estates-Dr-63005/home/93495743,MARIS,21001492,N,Y,38.6273964,-90.6013607
PAST SALE,May-20-2022,Single Family Residential,1442 Highland Valley Dr,Wildwood,MO,63005,825000,5,6.0,Highlands of Chesterfield Wildhorse,5326,23087,1994,,155,76,Sold,,,https://www.redfin.com/MO/Wildwood/1442-Highland-Valley-Dr-63005/home/93485414,MARIS,22016123,N,Y,38.6354054,-90.6251356
PAST SALE,December-9-2021,Single Family Residential,1887 Stenton,Chesterfield,MO,63005,650000,4,3.5,Chesterfield Meadow 2,4758,23958,1979,,137,,Sold,,,https://www.redfin.com/MO/Chesterfield/1887-Stenton-Path-63005/home/93484675,MARIS,21075587,N,Y,38.6383617,-90.5757885
PAST SALE,July-29-2021,Single Family Residential,1861 Kehrswood Dr,Chesterfield,MO,63005,739000,4,4.5,Kehrswood 1,4921,43996,1988,,150,25,Sold,,,https://www.redfin.com/MO/Chesterfield/1861-Kehrswood-Dr-63005/home/62736076,MARIS,21029075,N,Y,38.6300459,-90.5960341
PAST SALE,July-14-2020,Single Family Residential,17704 Greystone Terrace Dr,Wildwood,MO,63005,739000,4,3.5,Wildhorse Village G,4529,23522,1994,,163,67,Sold,,,https://www.redfin.com/MO/Wildwood/17704-Greystone-Terrace-Dr-63005/home/93485343,MARIS,20035202,N,Y,38.6412557,-90.6343163
PAST SALE,March-9-2021,Single Family Residential,1412 Wildhorse Parkway Dr,Wildwood,MO,63005,675000,5,4.5,Wildhorse Village E One,4658,25700,1994,,145,67,Sold,,,https://www.redfin.com/MO/Wildwood/1412-Wildhorse-Parkway-Dr-63005/home/93485261,MARIS,21001596,N,Y,38.6407493,-90.6332611
PAST SALE,July-18-2022,Single Family Residential,17632 Westhampton Woods Dr,Wildwood,MO,63005,640000,4,4.0,Westhampton Woods 2,4600,22651,1997,,139,18,Sold,,,https://www.redfin.com/MO/Wildwood/17632-Westhampton-Woods-Dr-63005/home/93496107,MARIS,22034300,N,Y,38.6215734,-90.648369
PAST SALE,February-11-2021,Single Family Residential,2618 Wynncrest Falls Dr,Wildwood,MO,63005,735000,5,4.5,Wynncrest - Five,4535,17860,2010,,162,63,Sold,,,https://www.redfin.com/MO/Wildwood/2618-Wynncrest-Falls-Dr-63005/home/93325654,MARIS,20080690,N,Y,38.6107169,-90.6093519
PAST SALE,July-9-2021,Condo/Co-op,708 Stonebluff Ct,Chesterfield,MO,63005,715000,3,2.5,Knolls at Stonehill,4134,5663,2000,,173,500,Sold,,,https://www.redfin.com/MO/Chesterfield/708-Stonebluff-Ct-63005/home/93626496,MARIS,21031515,N,Y,38.651808,-90.577338
PAST SALE,November-30-2020,Single Family Residential,2171 Kehrs Rdg,Chesterfield,MO,63005,859900,4,4.5,Kehrs Mill Estates 7 Sec 2,3683,44431,1987,,233,,Sold,,,https://www.redfin.com/MO/Chesterfield/2171-Kehrs-Ridge-Dr-63005/home/93496022,MARIS,20076029,N,Y,38.628228,-90.5989932
PAST SALE,August-19-2021,Single Family Residential,227 Pennington Ln,Chesterfield,MO,63005,725000,5,3.5,Forest Hills Club Estates,4660,40075,1978,,156,42,Sold,,,https://www.redfin.com/MO/Chesterfield/227-Pennington-Ln-63005/home/93505780,MARIS,21047793,N,Y,38.6116918,-90.5910226
PAST SALE,May-27-2021,Single Family Residential,1470 Chesterfield Estates Dr,Chesterfield,MO,63005,724900,4,3.5,Chesterfield Estates,4068,72310,1990,,178,,Sold,,,https://www.redfin.com/MO/Chesterfield/1470-Chesterfield-Estates-Dr-63005/home/93476740,MARIS,21023950,N,Y,38.6495874,-90.6040983
PAST SALE,September-8-2022,Single Family Residential,1247 Somerset Field Dr,Chesterfield,MO,63005,690000,3,2.5,Somerset Two,2480,13939,1994,,278,29,Sold,,,https://www.redfin.com/MO/Chesterfield/1247-Somerset-Field-Dr-63005/home/93476837,MARIS,22047182,N,Y,38.6587278,-90.610758
PAST SALE,May-5-2022,Single Family Residential,1208 Wildhorse Meadows Dr,Chesterfield,MO,63005,677000,4,4.0,Spring Hill Bluffs,4489,14810,1998,,151,34,Sold,,,https://www.redfin.com/MO/Chesterfield/1208-Wildhorse-Meadows-Dr-63005/home/85252412,MARIS,22015900,N,Y,38.6584678,-90.6134961
PAST SALE,September-29-2022,Single Family Residential,17860 Westhampton Woods Dr,Wildwood,MO,63005,695000,5,5.0,Westhampton Woods One,4447,21780,1996,,156,33,Sold,,,https://www.redfin.com/MO/Wildwood/17860-Westhampton-Woods-Dr-63005/home/93507439,MARIS,22050232,N,Y,38.6195896,-90.6514061
PAST SALE,June-14-2022,Single Family Residential,1245 Fienup Lake Dr,Chesterfield,MO,63005,739900,4,3.5,Fienup Farms Seven,3090,13242,2021,,239,125,Sold,,,https://www.redfin.com/MO/Chesterfield/1245-Fienup-Lake-Dr-63005/home/175759972,MARIS,22019113,N,Y,38.6581997,-90.597976
PAST SALE,June-26-2019,Single Family Residential,1329 Bentley Place Dr,Chesterfield,MO,63005,760000,5,4.5,Bentley Place,3967,29621,1996,,192,54,Sold,,,https://www.redfin.com/MO/Chesterfield/1329-Bentley-Place-Dr-63005/home/93476794,MARIS,19032775,N,Y,38.6535051,-90.60691
PAST SALE,April-13-2021,Single Family Residential,17401 Emily Way Ct,Wildwood,MO,63005,669000,5,3.5,Highlands Of Chesterfield Highland Ridge,4200,31363,1990,,159,76,Sold,,,https://www.redfin.com/MO/Wildwood/17401-Emily-Way-Ct-63005/home/93484806,MARIS,21007772,N,Y,38.6390045,-90.6224521
PAST SALE,April-13-2023,Single Family Residential,17937 Homestead Bluffs Dr,Wildwood,MO,63005,849900,5,4.5,Homestead Estates At Wildwood,3563,52011,2018,,239,92,Sold,,,https://www.redfin.com/MO/Wildwood/17937-Homestead-Bluffs-Dr-63005/home/62779010,MARIS,23008654,N,Y,38.601591,-90.671413
PAST SALE,June-28-2022,Single Family Residential,16194 Clayton Hollow Ln,Wildwood,MO,63005,635000,4,4.5,Clayton Hollow,4387,13068,2002,,145,29,Sold,,,https://www.redfin.com/MO/Wildwood/16194-Clayton-Hollow-Ln-63005/home/62692446,MARIS,22010273,N,Y,38.6060381,-90.5986048
PAST SALE,May-17-2022,Single Family Residential,17484 Highland Way Dr,Wildwood,MO,63005,750000,5,5.0,Highlands Of Chesterfield Wildhorse,4087,28314,1989,,184,76,Sold,,,https://www.redfin.com/MO/Wildwood/17484-Highland-Way-Dr-63005/home/93485355,MARIS,22020064,N,Y,38.6388316,-90.6241547
PAST SALE,June-8-2022,Single Family Residential,17709 Greystone Terrace Dr,Wildwood,MO,63005,740000,5,3.5,Wildhorse Village G,5034,41818,1992,,147,83,Sold,,,https://www.redfin.com/MO/Wildwood/17709-Greystone-Terrace-Dr-63005/home/62749235,MARIS,22019623,N,Y,38.6420592,-90.6346524
PAST SALE,July-30-2021,Single Family Residential,2609 Wynncrest Rdg,Wildwood,MO,63005,799000,5,4.5,Wynncrest Three,6439,27007,2004,,124,54,Sold,,,https://www.redfin.com/MO/Wildwood/2609-Wynncrest-Ridge-Dr-63005/home/93318523,MARIS,21029392,N,Y,38.610899,-90.6071133
PAST SALE,September-27-2022,Single Family Residential,1871 Chamfers Farm Ct,Chesterfield,MO,63005,785000,5,3.5,Chesterfield Meadow One,5080,22216,1978,,155,,Sold,,,https://www.redfin.com/MO/Chesterfield/1871-Chamfers-Farm-Ct-63005/home/62731138,MARIS,22053151,N,Y,38.6388376,-90.5775382
PAST SALE,March-17-2022,Single Family Residential,1328 Carriage Crossing Ln,Chesterfield,MO,63005,630000,4,3.0,Country Place At Chesterfield One,2930,28750,1987,,215,38,Sold,,,https://www.redfin.com/MO/Chesterfield/1328-Carriage-Crossing-Ln-63005/home/93476786,MARIS,22007661,N,Y,38.6530915,-90.6116275
PAST SALE,September-30-2022,Single Family Residential,17626 Lisa Valley Ct,Wildwood,MO,63005,769000,6,4.5,Highlands Of Chesterfield Highland,4728,22216,1995,,163,,Sold,,,https://www.redfin.com/MO/Wildwood/17626-Lisa-Valley-Ct-63005/home/69360564,MARIS,22046749,N,Y,38.6348581,-90.6317062
PAST SALE,May-9-2023,Single Family Residential,17602 Lasiandra Dr,Wildwood,MO,63005,799000,5,4.5,Wildhorse Village L Two,4625,47045,2000,,173,83,Sold,,,https://www.redfin.com/MO/Wildwood/17602-Lasiandra-Dr-63005/home/67977032,MARIS,23015894,N,Y,38.6336668,-90.6360934
PAST SALE,August-11-2021,Single Family Residential,16767 Kehrs Mill Estates Dr,Chesterfield,MO,63005,799000,4,4.5,Kehrs Mill Estates,4600,48352,1986,,174,63,Sold,,,https://www.redfin.com/MO/Chesterfield/16767-Kehrs-Mill-Estates-Dr-63005/home/93496087,MARIS,21032882,N,Y,38.6290285,-90.6026925
PAST SALE,June-28-2021,Single Family Residential,1524 Highland Valley Cir,Wildwood,MO,63005,664900,5,3.5,Highlands of Chesterfield HighlandValley,4500,24394,1990,,148,76,Sold,,,https://www.redfin.com/MO/Wildwood/1524-Highland-Valley-Cir-63005/home/93485254,MARIS,21008259,N,Y,38.6375833,-90.6273
PAST SALE,June-8-2021,Single Family Residential,652 Old Slave Rd,Wildwood,MO,63005,675000,4,3.5,Spicewood Farms 3,4260,133119,1988,,158,,Sold,,,https://www.redfin.com/MO/Wildwood/652-Old-Slave-Rd-63005/home/88016568,MARIS,21020253,N,Y,38.6386316,-90.7030716
PAST SALE,April-6-2022,Single Family Residential,239 Whiting Ln,Chesterfield,MO,63005,774900,4,4.5,Forest Hills Club Estates Area 6 Sec 4,4658,33977,1979,,166,42,Sold,,,https://www.redfin.com/MO/Chesterfield/239-Whiting-Ln-63005/home/93505607,MARIS,22009767,N,Y,38.6094727,-90.5921691
PAST SALE,January-22-2021,Single Family Residential,204 Appaloosa Dr,Chesterfield,MO,63005,865000,5,5.5,Appaloosa Way,4403,23958,2003,,196,,Sold,,,https://www.redfin.com/MO/Chesterfield/204-Appaloosa-Dr-63005/home/93631239,MARIS,20076189,N,Y,38.658599,-90.5878237
PAST SALE,June-16-2021,Single Family Residential,17373 Orrville,Wildwood,MO,63005,840000,5,4.5,Section 23-45-3 Bdy Adj Tracts 1 & 2,5013,317117,1970,,168,,Sold,,,https://www.redfin.com/MO/Wildwood/17373-Orrville-Rd-63005/home/93631154,MARIS,21027422,N,Y,38.631428,-90.642707
PAST SALE,August-7-2020,Single Family Residential,17717 Greystone Terrace Dr,Wildwood,MO,63005,740000,6,5.0,Wildhorse Village G,5970,22651,1991,,124,67,Sold,,,https://www.redfin.com/MO/Wildwood/17717-Greystone-Terrace-Dr-63005/home/93485464,MARIS,20030844,N,Y,38.6422965,-90.6350382
PAST SALE,October-23-2020,Single Family Residential,2142 Hickory Dr,Chesterfield,MO,63005,699900,5,5.0,Wilson Farm Estates 5,3932,29185,1986,,178,29,Sold,,,https://www.redfin.com/MO/Chesterfield/2142-Hickory-Dr-63005/home/93484530,MARIS,20058009,N,Y,38.6370239,-90.593519
PAST SALE,August-24-2022,Single Family Residential,17703 Littleleaf Ct,Chesterfield,MO,63005,675000,5,5.0,Wildhorse Village A,3898,32931,1997,,173,,Sold,,,https://www.redfin.com/MO/Chesterfield/17703-Littleleaf-Ct-63005/home/93477010,MARIS,22017846,N,Y,38.6534495,-90.6329649
PAST SALE,May-24-2019,Single Family Residential,16304 Wilson Crk,Chesterfield,MO,63005,699900,5,3.5,Manors At Clarkson Valley 2 The,4600,50094,1987,,152,50,Sold,,,https://www.redfin.com/MO/Chesterfield/16304-Wilson-Creek-Ct-63005/home/62706435,MARIS,19004403,N,Y,38.6309976,-90.5860487
PAST SALE,July-13-2021,Single Family Residential,1564 Highland Valley Cir,Wildwood,MO,63005,799900,5,6.0,Highlands of Chesterfield,5626,28314,1997,,142,,Sold,,,https://www.redfin.com/MO/Wildwood/1564-Highland-Valley-Cir-63005/home/93485287,MARIS,21033169,N,Y,38.6363153,-90.6312064
PAST SALE,November-22-2022,Single Family Residential,1145 Keystone Trail Dr,Wildwood,MO,63005,749000,5,4.0,Wilderness Trails,4195,19166,1998,,179,23,Sold,,,https://www.redfin.com/MO/Wildwood/1145-Keystone-Trail-Dr-63005/home/93485947,MARIS,22054707,N,Y,38.6414169,-90.6497949
PAST SALE,February-24-2022,Single Family Residential,16604 Benton Taylor Dr,Chesterfield,MO,63005,725000,4,4.5,Estates At Baxter Pointe,4748,13939,2000,,153,42,Sold,,,https://www.redfin.com/MO/Chesterfield/16604-Benton-Taylor-Dr-63005/home/93475956,MARIS,21086898,N,Y,38.6532923,-90.5807513
PAST SALE,October-4-2021,Single Family Residential,17777 Hornbean,Wildwood,MO,63005,824900,5,5.5,Wildhorse Village,5532,29011,1997,,149,67,Sold,,,https://www.redfin.com/MO/Wildwood/17777-Hornbean-Dr-63005/home/93485307,MARIS,21051379,N,Y,38.641771,-90.6375004
PAST SALE,June-8-2021,Single Family Residential,2142 Wildwood Meadows Ct,Wildwood,MO,63005,689000,4,5.5,Wildwood Meadows Estates,5788,17860,1998,,119,63,Sold,,,https://www.redfin.com/MO/Wildwood/2142-Wildwood-Meadows-Ct-63005/home/93495580,MARIS,21024937,N,Y,38.6218591,-90.6160383
PAST SALE,August-3-2020,Single Family Residential,18034 Pine Canyon Ct,Wildwood,MO,63005,840000,5,5.5,Pine Creek,5208,45302,1996,,161,42,Sold,,,https://www.redfin.com/MO/Wildwood/18034-Pine-Canyon-Ct-63005/home/93485610,MARIS,20026945,N,Y,38.6422789,-90.653184
PAST SALE,July-1-2022,Single Family Residential,16232 Wynncrest Ridge Ct,Wildwood,MO,63005,799000,5,4.5,Wynncrest,6507,15682,2004,,123,,Sold,,,https://www.redfin.com/MO/Wildwood/16232-Wynncrest-Ridge-Ct-63005/home/93318522,MARIS,22024953,N,Y,38.6114596,-90.6075059
PAST SALE,March-18-2021,Single Family Residential,16025 Wilson Manor Dr,Chesterfield,MO,63005,769900,4,3.0,Wilson Manors II,5295,34848,1988,,145,38,Sold,,,https://www.redfin.com/MO/Chesterfield/16025-Wilson-Manor-Dr-63005/home/62744387,MARIS,21001178,N,Y,38.6401952,-90.5819812
PAST SALE,June-30-2022,Single Family Residential,1945 Lymington Cmn,Chesterfield,MO,63005,725000,4,3.0,Chesterfield Meadow One,4000,22216,1979,,181,29,Sold,,,https://www.redfin.com/MO/Chesterfield/1945-Lymington-Cmn-63005/home/93484591,MARIS,22024707,N,Y,38.6367058,-90.5751045
PAST SALE,January-14-2021,Single Family Residential,8 Forest Clb,Chesterfield,MO,63005,715000,5,4.0,Forest Hills Club Estates Area 2,4792,41818,1976,,149,42,Sold,,,https://www.redfin.com/MO/Chesterfield/8-Forest-Club-Dr-63005/home/88906967,MARIS,20076295,N,Y,38.6214884,-90.5870301
PAST SALE,June-8-2021,Single Family Residential,16183 Wilson Manor Dr,Chesterfield,MO,63005,825000,5,4.5,Wilson Manors,5030,37897,1989,,164,38,Sold,,,https://www.redfin.com/MO/Chesterfield/16183-Wilson-Manor-Dr-63005/home/93484496,MARIS,21023058,N,Y,38.6413058,-90.5893029
PAST SALE,June-29-2022,Single Family Residential,2760 Autumn Run Ct,Wildwood,MO,63005,649900,4,3.5,Valley View,5300,21780,1983,,123,25,Sold,,,https://www.redfin.com/MO/Wildwood/2760-Autumn-Run-Ct-63005/home/62742010,MARIS,22019474,N,Y,38.607716,-90.6031364
PAST SALE,August-2-2022,Single Family Residential,1868 Newburyport,Chesterfield,MO,63005,725000,4,3.5,Chesterfield Meadow One,4000,22216,1977,,181,29,Sold,,,https://www.redfin.com/MO/Chesterfield/1868-Newburyport-Rd-63005/home/93484753,MARIS,22038649,N,Y,38.6387596,-90.5781915
PAST SALE,June-17-2022,Single Family Residential,1419 Westhampton View Ct,Wildwood,MO,63005,749900,4,4.5,Westhampton Woods 2,4532,28750,1997,,165,18,Sold,,,https://www.redfin.com/MO/Wildwood/1419-Westhampton-View-Ct-63005/home/62739336,MARIS,22024745,N,Y,38.6203575,-90.6459247
PAST SALE,September-30-2021,Single Family Residential,16236 Wynncrest Ridge Ct,Wildwood,MO,63005,779000,6,4.5,Wynncrest Three,6215,20909,2004,,125,63,Sold,,,https://www.redfin.com/MO/Wildwood/16236-Wynncrest-Ridge-Ct-63005/home/93318527,MARIS,21041688,N,Y,38.6114549,-90.607934
PAST SALE,August-20-2021,Single Family Residential,2052 Kingspointe Dr,Chesterfield,MO,63005,749900,5,6.0,Kingspointe,6520,51401,1988,,115,92,Sold,,,https://www.redfin.com/MO/Chesterfield/2052-Kingspointe-Dr-63005/home/93496154,MARIS,21000464,N,Y,38.6330496,-90.6015827
PAST SALE,August-5-2019,Single Family Residential,341 Willow Weald Path,Chesterfield,MO,63005,740000,4,3.5,Reserve At Chesterfield Village,5330,10062,2014,,139,83,Sold,,,https://www.redfin.com/MO/Chesterfield/341-Willow-Weald-Path-63005/home/62762450,MARIS,19036202,N,Y,38.6582408,-90.5774706
PAST SALE,October-1-2021,Single Family Residential,16794 Benton Taylor Dr,Chesterfield,MO,63005,629900,4,4.5,Estates At Baxter Pointe The,4570,12197,2000,,138,42,Sold,,,https://www.redfin.com/MO/Chesterfield/16794-Benton-Taylor-Dr-63005/home/93626465,MARIS,21054978,N,Y,38.6554818,-90.584625
PAST SALE,July-10-2020,Single Family Residential,370 Willow Weald Path,Chesterfield,MO,63005,815000,4,3.5,Reserve At Chesterfield Village -,4426,10454,2014,,184,82,Sold,,,https://www.redfin.com/MO/Chesterfield/370-Willow-Weald-Path-63005/home/62768520,MARIS,20026889,N,Y,38.657173,-90.5766759
PAST SALE,August-15-2022,Single Family Residential,2044 Kingspointe Dr,Chesterfield,MO,63005,725000,5,5.0,Kingspointe,5237,44431,1989,,138,,Sold,,,https://www.redfin.com/MO/Chesterfield/2044-Kingspointe-Dr-63005/home/93496155,MARIS,22041535,N,Y,38.6337822,-90.6025445
PAST SALE,September-6-2022,Single Family Residential,1476 Carriage Crossing Ln,Chesterfield,MO,63005,685000,4,2.5,Country Place,3300,28750,1988,,208,38,Sold,,,https://www.redfin.com/MO/Chesterfield/1476-Carriage-Crossing-Ln-63005/home/93484928,MARIS,22048761,N,Y,38.6455622,-90.6101474
PAST SALE,January-15-2021,Single Family Residential,11 Wilson Ridge Ct,Chesterfield,MO,63005,799000,5,5.5,Wilson Farms Estates 2,4397,19855,1984,,182,29,Sold,,,https://www.redfin.com/MO/Chesterfield/11-Wilson-Ridge-Ct-63005/home/62721066,MARIS,20090213,N,Y,38.6349376,-90.5888037
PAST SALE,April-30-2019,Single Family Residential,16961 Bottlebrush Ct,Chesterfield,MO,63005,839900,4,3.5,Arbors At Kehrs Mill - 1,4420,21998,2017,,190,108,Sold,,,https://www.redfin.com/MO/Chesterfield/16961-Bottlebrush-Ct-63005/home/143038673,MARIS,19017120,N,Y,38.6414596,-90.6191396
PAST SALE,August-17-2021,Single Family Residential,1332 Countryside Manor Pl,Chesterfield,MO,63005,849000,4,4.5,Countryside At Chesterfield,4524,28750,1993,,188,,Sold,,,https://www.redfin.com/MO/Chesterfield/1332-Countryside-Manor-Pl-63005/home/93476692,MARIS,21034313,N,Y,38.6536813,-90.6202314
PAST SALE,May-7-2021,Single Family Residential,1726 Horseshoe Ridge Rd,Chesterfield,MO,63005,785000,5,3.5,Kehrs Mill Trails,5134,87991,1978,,153,83,Sold,,,https://www.redfin.com/MO/Chesterfield/1726-Horseshoe-Ridge-Rd-63005/home/93484757,MARIS,21013578,N,Y,38.6371871,-90.5976801
PAST SALE,April-5-2023,Single Family Residential,1556 Highland Valley Cir,Wildwood,MO,63005,799000,5,3.5,Highlands Of Chesterfield,3648,23958,1995,,219,86,Sold,,,https://www.redfin.com/MO/Wildwood/1556-Highland-Valley-Cir-63005/home/93485289,MARIS,23004355,N,Y,38.6368319,-90.6303735
PAST SALE,,Single Family Residential,18506 Wild Horse Creek Rd,Wildwood,MO,63005,,4,4.5,,4398,73616,2004,,,,Sold,,,https://www.redfin.com/MO/Wildwood/18506-Wild-Horse-Creek-Rd-63005/home/93631178,MARIS,,N,Y,38.6425702,-90.6776938
PAST SALE,August-1-2018,Single Family Residential,1709 Wilson Ave,Chesterfield,MO,63005,799900,4,3.5,Wilson Bluffs,3512,43996,2013,,228,,Sold,,,https://www.redfin.com/MO/Chesterfield/1709-Wilson-Ave-63005/home/93329256,MARIS,18040343,N,Y,38.6420238,-90.5808535
PAST SALE,June-28-2021,Single Family Residential,1424 Haarman Oak Dr,Wildwood,MO,63005,719000,6,4.5,Wildhorse Village F,6329,40946,1994,,114,67,Sold,,,https://www.redfin.com/MO/Wildwood/1424-Haarman-Oak-Dr-63005/home/62729685,MARIS,21014314,N,Y,38.6378032,-90.6325947
PAST SALE,October-11-2022,Single Family Residential,16444 Andraes Dr,Chesterfield,MO,63005,785000,5,5.0,Wilson Farm Estates,4546,39640,1987,,173,29,Sold,,,https://www.redfin.com/MO/Chesterfield/16444-Andraes-Dr-63005/home/93484491,MARIS,22056086,N,Y,38.6414417,-90.5948505
PAST SALE,September-22-2022,Single Family Residential,1352 Carriage Crossing Ln,Chesterfield,MO,63005,745000,5,3.5,Country Place,4015,29621,1987,,186,38,Sold,,,https://www.redfin.com/MO/Chesterfield/1352-Carriage-Crossing-Ln-63005/home/93476650,MARIS,22048277,N,Y,38.6503591,-90.6132741
PAST SALE,November-12-2021,Single Family Residential,16851 Kehrsdale Dr,Chesterfield,MO,63005,739900,4,3.5,Kehrs Mill Estates 4 Sec 2,4071,47045,1986,,182,,Sold,,,https://www.redfin.com/MO/Chesterfield/16851-Kehrsdale-Dr-63005/home/91496744,MARIS,21069469,N,Y,38.6304562,-90.6079274
PAST SALE,July-8-2021,Single Family Residential,159 Highgrove Ct,Chesterfield,MO,63005,699900,4,4.5,Forest Hills Club Estates,4010,50965,1977,,175,42,Sold,,,https://www.redfin.com/MO/Chesterfield/159-Highgrove-Ct-63005/home/93505760,MARIS,21029475,N,Y,38.6098268,-90.5869547
PAST SALE,August-14-2018,Single Family Residential,16432 Farmers Mill Ln,Chesterfield,MO,63005,760000,4,3.5,Wilson Farm Estates 2,5049,23958,1985,,151,25,Sold,,,https://www.redfin.com/MO/Chesterfield/16432-Farmers-Mill-Ln-63005/home/62751072,MARIS,18055639,N,Y,38.63277,-90.5921136
PAST SALE,August-26-2021,Single Family Residential,16159 Wilson Manor Dr,Chesterfield,MO,63005,775000,4,4.0,Wilson Manors II,4561,37897,1989,,170,38,Sold,,,https://www.redfin.com/MO/Chesterfield/16159-Wilson-Manor-Dr-63005/home/93484651,MARIS,21025937,N,Y,38.6410891,-90.5875833
PAST SALE,July-10-2019,Single Family Residential,185 Fick Farm Rd,Chesterfield,MO,63005,799000,4,4.5,Riverscene Estates Lt 2 & Livergood Lt,5205,59677,1995,,154,,Sold,,,https://www.redfin.com/MO/Chesterfield/185-Fick-Farm-Rd-63005/home/93477322,MARIS,19031572,N,Y,38.6491294,-90.6588146
PAST SALE,August-9-2021,Single Family Residential,1479 Country Lake Estates Dr,Chesterfield,MO,63005,875000,5,5.0,Country Lake Estates,5300,23958,2000,,165,63,Sold,,,https://www.redfin.com/MO/Chesterfield/1479-Country-Lake-Estates-Dr-63005/home/62711170,MARIS,21029463,N,Y,38.650297,-90.625043
PAST SALE,June-17-2021,Single Family Residential,17726 Wilding Place Dr,Wildwood,MO,63005,695000,4,4.5,Wildhorse Village,4241,28314,1992,,164,67,Sold,,,https://www.redfin.com/MO/Wildwood/17726-Wilding-Place-Dr-63005/home/93485496,MARIS,21025782,N,Y,38.6418546,-90.6409625
PAST SALE,May-29-2019,Single Family Residential,552 Woodcliff Heights Dr,Wildwood,MO,63011,829900,5,5.5,Woodcliff Heights,6029,13939,2004,,138,58,Sold,,,https://www.redfin.com/MO/Wildwood/552-Woodcliff-Heights-Dr-63011/home/93324227,MARIS,19022978,N,Y,38.6134538,-90.6162851
PAST SALE,September-17-2021,Single Family Residential,1560 Highland Valley Cir,Wildwood,MO,63005,824900,5,6.0,Highlands of Chesterfield Highlands,5526,23087,1994,,149,76,Sold,,,https://www.redfin.com/MO/Wildwood/1560-Highland-Valley-Cir-63005/home/93485288,MARIS,21049917,N,Y,38.6365837,-90.6308177
PAST SALE,January-7-2019,Single Family Residential,1056 Greystone Manor Pkwy,Chesterfield,MO,63005,779900,5,4.5,Greystone One,5029,22651,1997,,155,46,Sold,,,https://www.redfin.com/MO/Chesterfield/1056-Greystone-Manor-Pkwy-63005/home/62755890,MARIS,18087658,N,Y,38.6491768,-90.6353344
PAST SALE,September-28-2022,Single Family Residential,17647 Westhampton Woods Dr,Wildwood,MO,63005,805486,4,3.5,Westhampton Woods 2,3254,21780,,,248,,Sold,,,https://www.redfin.com/MO/Wildwood/17647-Westhampton-Woods-Dr-63005/home/93496185,MARIS,22037042,N,Y,38.6227241,-90.6477764
PAST SALE,August-20-2021,Single Family Residential,1100 Patchwork Flds,Chesterfield,MO,63005,788268,4,3.5,Fienup Farms,3108,,,,254,125,Sold,,,https://www.redfin.com/MO/Chesterfield/1100-Patchwork-Flds-63005/home/174717456,MARIS,21016973,N,Y,38.6622938,-90.5974425
PAST SALE,September-15-2021,Single Family Residential,1144 Patchwork Flds,Chesterfield,MO,63005,799900,4,3.5,Fienup Farms,3268,10642,2021,,245,125,Sold,,,https://www.redfin.com/MO/Chesterfield/1144-Patchwork-Flds-63005/home/173726057,MARIS,21053338,N,Y,38.6608699,-90.5959852
PAST SALE,November-12-2021,Single Family Residential,17951 Bonhomme Ridge Ct,Chesterfield,MO,63005,810000,4,3.5,Greystone Five,4303,38768,1998,,188,,Sold,,,https://www.redfin.com/MO/Chesterfield/17951-Bonhomme-Ridge-Ct-63005/home/93477040,MARIS,21067380,N,Y,38.64916,-90.6384445
PAST SALE,August-18-2020,Single Family Residential,1081 Arbor Grove Ct,Chesterfield,MO,63005,825000,4,3.5,Arbors At Wildhorse Creek The,3814,24219,2013,,216,100,Sold,,,https://www.redfin.com/MO/Chesterfield/1081-Arbor-Grove-Ct-63005/home/93329809,MARIS,20034316,N,Y,38.6528845,-90.63141
PAST SALE,November-23-2020,Single Family Residential,280 Pennington Ln,Clarkson Valley,MO,63005,734900,4,3.5,Forest Hills Club Estates,4004,39640,1979,,184,46,Sold,,,https://www.redfin.com/MO/Chesterfield/280-Pennington-Ln-63005/home/62759029,MARIS,20068551,N,Y,38.608804,-90.5947211
PAST SALE,September-10-2020,Single Family Residential,2035 Wilson Ridge Ln,Chesterfield,MO,63005,699000,4,3.5,Wilson Farm Estates 2,2687,31363,1984,,260,29,Sold,,,https://www.redfin.com/MO/Chesterfield/2035-Wilson-Ridge-Ln-63005/home/93495441,MARIS,20055107,N,Y,38.6339109,-90.5892844
PAST SALE,July-6-2018,Single Family Residential,528 Woodcliff Heights Dr,Wildwood,MO,63011,750000,5,5.5,Woodcliff Heights,5638,19602,2006,,133,67,Sold,,,https://www.redfin.com/MO/Wildwood/528-Woodcliff-Heights-Dr-63011/home/93324237,MARIS,18039890,N,Y,38.6127342,-90.6144958
PAST SALE,July-23-2018,Single Family Residential,16002 Aston Ct,Chesterfield,MO,63005,850000,4,5.0,Wilson Manors II 1,6058,37026,1989,,140,34,Sold,,,https://www.redfin.com/MO/Chesterfield/16002-Aston-Ct-63005/home/93484579,MARIS,18036906,N,Y,38.6382541,-90.5810014
PAST SALE,April-19-2023,Single Family Residential,14 Morganfield Ct,Chesterfield,MO,63005,775000,4,2.5,Wilson Farm Estates 3,3190,29621,1984,,243,,Sold,,,https://www.redfin.com/MO/Chesterfield/14-Morganfield-Ct-63005/home/93484555,MARIS,23008611,N,Y,38.635427,-90.5892474
PAST SALE,October-27-2021,Single Family Residential,732 Spiceberry Ln,Wildwood,MO,63005,699000,4,3.5,Spice Wood Farms Plat 2,2640,573293,1988,,265,25,Sold,,,https://www.redfin.com/MO/Wildwood/732-Spiceberry-Ln-63005/home/93330477,MARIS,21071155,N,Y,38.633671,-90.704481
PAST SALE,June-23-2020,Single Family Residential,414 Oak Stand Path,Chesterfield,MO,63005,799900,5,4.5,Reserve at Chesterfield Village,4889,12023,2011,,164,82,Sold,,,https://www.redfin.com/MO/Chesterfield/414-Oak-Stand-Path-63005/home/93328575,MARIS,20021723,N,Y,38.6563677,-90.5794116
PAST SALE,May-21-2021,Single Family Residential,17705 Gingertree Ct,Wildwood,MO,63005,749000,5,4.0,Wildhorse Village,5400,33106,1990,,139,67,Sold,,,https://www.redfin.com/MO/Wildwood/17705-Gingertree-Ct-63005/home/62759090,MARIS,21019269,N,Y,38.6404911,-90.6355566
PAST SALE,December-31-2018,Single Family Residential,1006 Savonne Ct,Chesterfield,MO,63005,849900,5,4.5,Miramonte,5734,54886,2004,,148,79,Sold,,,https://www.redfin.com/MO/Chesterfield/1006-Savonne-Ct-63005/home/93626996,MARIS,18091415,N,Y,38.6509445,-90.6417031
PAST SALE,December-13-2021,Single Family Residential,7 Kingspointe Lake Ct,Chesterfield,MO,63005,699000,4,3.5,Kingspointe 2a,5276,59677,1989,,132,,Sold,,,https://www.redfin.com/MO/Chesterfield/7-Kingspointe-Lake-Ct-63005/home/93484767,MARIS,21057401,N,Y,38.6364904,-90.6017306
PAST SALE,August-2-2021,Single Family Residential,1837 Stenton Path,Chesterfield,MO,63005,699000,5,4.5,Chesterfield Meadow,5215,26180,1979,,134,29,Sold,,,https://www.redfin.com/MO/Chesterfield/1837-Stenton-Path-63005/home/62731880,MARIS,21040891,N,Y,38.6398389,-90.5753079
PAST SALE,August-4-2021,Single Family Residential,421 Maple Rise Path,Chesterfield,MO,63005,735000,4,3.5,Reserve At Chesterfield Village,3589,7405,2012,,205,82,Sold,,,https://www.redfin.com/MO/Chesterfield/421-Maple-Rise-Path-63005/home/93328468,MARIS,21045162,N,Y,38.6561662,-90.5787461
PAST SALE,August-14-2020,Single Family Residential,2150 Riding Trail Dr,Chesterfield,MO,63005,769000,5,4.5,Sea Beauty Farm,5861,20038,1996,,131,71,Sold,,,https://www.redfin.com/MO/Chesterfield/2150-Riding-Trail-Dr-63005/home/93495518,MARIS,20033663,N,Y,38.6312563,-90.5834603
PAST SALE,November-10-2022,Single Family Residential,17308 Wildhorse Meadows Ct,Chesterfield,MO,63005,775000,4,4.5,Spring Hill Bluffs,4996,21344,1998,,155,33,Sold,,,https://www.redfin.com/MO/Chesterfield/17308-Wildhorse-Meadows-Ct-63005/home/93626976,MARIS,22000283,N,Y,38.6590384,-90.6140142
PAST SALE,December-20-2021,Single Family Residential,1294 Harvester Dr,Chesterfield,MO,63005,750000,4,3.5,Fienup Farms One,3252,11326,2020,,231,117,Sold,,,https://www.redfin.com/MO/Chesterfield/1294-Harvester-Dr-63005/home/174343661,MARIS,21068320,N,Y,38.6553386,-90.5973858
PAST SALE,December-14-2020,Single Family Residential,1113 Horse Run Ct,Chesterfield,MO,63005,880000,4,4.5,Greystone,6607,22216,1997,,133,50,Sold,,,https://www.redfin.com/MO/Chesterfield/1113-Horse-Run-Ct-63005/home/93485571,MARIS,20072230,N,Y,38.6481022,-90.6371116
PAST SALE,June-15-2021,Single Family Residential,17728 Greystone Terrace Dr,Wildwood,MO,63005,715000,5,4.5,Wildhorse Village,4800,23958,1993,,149,,Sold,,,https://www.redfin.com/MO/Wildwood/17728-Greystone-Terrace-Dr-63005/home/62747359,MARIS,20062907,N,Y,38.6424735,-90.6363896
PAST SALE,April-9-2021,Single Family Residential,17604 Burnham Ct,Chesterfield,MO,63005,850000,5,5.0,Wildhorse Village C,5390,48787,1990,,158,67,Sold,,,https://www.redfin.com/MO/Chesterfield/17604-Burnham-Ct-63005/home/93485536,MARIS,21009414,N,Y,38.6465076,-90.6289668
PAST SALE,October-28-2022,Single Family Residential,17720 Greystone Terrace Dr,Wildwood,MO,63005,750000,5,4.0,Wildhorse Village G,4694,22651,1990,,160,83,Sold,,,https://www.redfin.com/MO/Wildwood/17720-Greystone-Terrace-Dr-63005/home/62698823,MARIS,22058344,N,Y,38.642129,-90.6357046
PAST SALE,October-15-2020,Single Family Residential,454 Pine Bend Dr,Wildwood,MO,63005,795000,4,4.5,Pine Creek,4821,30056,1996,,165,,Sold,,,https://www.redfin.com/MO/Wildwood/454-Pine-Bend-Dr-63005/home/93485928,MARIS,20047459,N,Y,38.6408716,-90.6557769
PAST SALE,August-21-2020,Single Family Residential,320 Pine Bend Dr,Wildwood,MO,63005,849000,5,4.5,Pine Creek,5125,26136,1995,,166,42,Sold,,,https://www.redfin.com/MO/Wildwood/320-Pine-Bend-Dr-63005/home/93485613,MARIS,20033402,N,Y,38.6449041,-90.65624
PAST SALE,December-12-2022,Single Family Residential,16732 Kehrsgrove Dr,Chesterfield,MO,63005,730000,5,3.5,Kehrs Mill Estates 1 Sec 3,4328,51836,1982,,169,63,Sold,,,https://www.redfin.com/MO/Chesterfield/16732-Kehrsgrove-Dr-63005/home/93494695,MARIS,22072714,N,Y,38.6244822,-90.5942587
PAST SALE,August-23-2021,Single Family Residential,16467 Horseshoe Ridge Rd,Clarkson Valley,MO,63005,769000,5,3.5,Kehrs Mill Trails,3283,87120,1978,,234,83,Sold,,,https://www.redfin.com/MO/Chesterfield/16467-Horseshoe-Ridge-Rd-63005/home/62736623,MARIS,21041505,N,Y,38.6447647,-90.6019526
PAST SALE,October-1-2018,Single Family Residential,17605 Lasiandra Dr,Wildwood,MO,63005,879000,6,5.5,Wildhorse Village L Two,6166,29185,1998,,143,67,Sold,,,https://www.redfin.com/MO/Wildwood/17605-Lasiandra-Dr-63005/home/93496343,MARIS,18064781,N,Y,38.63393,-90.6366673
PAST SALE,January-10-2023,Single Family Residential,16741 Kehrs Mill Estates Dr,Chesterfield,MO,63005,750000,5,3.0,Kehrs Mill Estates 3,2560,47916,1985,,293,79,Sold,,,https://www.redfin.com/MO/Chesterfield/16741-Kehrs-Mill-Estates-Dr-63005/home/93496069,MARIS,22075965,N,Y,38.6281347,-90.6012127
PAST SALE,July-31-2020,Single Family Residential,18 Crown Manor Dr,Chesterfield,MO,63005,789000,4,3.0,Forest Hills Club Estates,3240,39204,1977,,244,42,Sold,,,https://www.redfin.com/MO/Chesterfield/18-Crown-Manor-Dr-63005/home/62693965,MARIS,20031439,N,Y,38.6201343,-90.5950724
PAST SALE,May-3-2023,Single Family Residential,348 Palomino Hill Ct,Chesterfield,MO,63005,724900,4,2.5,Estates At Baxter Pointe The,3428,10890,2000,,211,71,Sold,,,https://www.redfin.com/MO/Chesterfield/348-Palomino-Hill-Ct-63005/home/93626464,MARIS,23006675,N,Y,38.6548457,-90.5848654
PAST SALE,July-1-2021,Single Family Residential,1270 Fienup Lake Dr,Chesterfield,MO,63005,850000,4,3.5,Fienup Farms One,3329,11979,2020,,255,125,Sold,,,https://www.redfin.com/MO/Chesterfield/1270-Fienup-Lake-Dr-63005/home/174343718,MARIS,21021097,N,Y,38.6570659,-90.5975632
PAST SALE,August-9-2019,Single Family Residential,30 Crown Manor Dr,Chesterfield,MO,63005,800000,5,4.5,Forest Hills Club Estates,5655,49223,1977,,141,42,Sold,,,https://www.redfin.com/MO/Chesterfield/30-Crown-Manor-Dr-63005/home/93494700,MARIS,19037484,N,Y,38.6213584,-90.5961081
PAST SALE,February-24-2020,Single Family Residential,125 Forest Club Dr,Clarkson Valley,MO,63005,749000,4,3.5,Forest Hills Club Estate Area 6 Sec 3,5178,42253,1978,,145,42,Sold,,,https://www.redfin.com/MO/Chesterfield/125-Forest-Club-Dr-63005/home/92911947,MARIS,19087916,N,Y,38.611804,-90.589081
PAST SALE,August-27-2019,Single Family Residential,16167 Wilson Manor Dr,Chesterfield,MO,63005,825000,4,4.5,Wilson Manors II 3,4921,38333,1988,,168,38,Sold,,,https://www.redfin.com/MO/Chesterfield/16167-Wilson-Manor-Dr-63005/home/93484494,MARIS,19050097,N,Y,38.6413329,-90.5879901
PAST SALE,May-17-2022,Single Family Residential,1841 Newburyport Rd,Chesterfield,MO,63005,689000,4,3.5,Chesterfield Meadow One,3390,47480,1978,,203,29,Sold,,,https://www.redfin.com/MO/Chesterfield/1841-Newburyport-Rd-63005/home/93484585,MARIS,22021198,N,Y,38.6390802,-90.5796334
PAST SALE,September-11-2020,Single Family Residential,462 Oak Stand Path,Chesterfield,MO,63005,738000,4,4.5,Reserve At Chesterfield Village,4606,11543,2010,,160,,Sold,,,https://www.redfin.com/MO/Chesterfield/462-Oak-Stand-Path-63005/home/93328547,MARIS,20039974,N,Y,38.6549548,-90.5793931
PAST SALE,July-19-2019,Single Family Residential,298 Herworth Dr,Chesterfield,MO,63005,825000,4,5.0,Forest Hills Club Estates Area 7-B,4350,44431,1978,,190,42,Sold,,,https://www.redfin.com/MO/Chesterfield/298-Herworth-Dr-63005/home/93507011,MARIS,19034812,N,Y,38.6141566,-90.597976
PAST SALE,August-5-2021,Single Family Residential,2103 Stillwater Point Ct,Chesterfield,MO,63005,759000,4,4.5,Manors At Clarkson Valley,5983,41818,1986,,127,42,Sold,,,https://www.redfin.com/MO/Chesterfield/2103-Stillwater-Point-Ct-63005/home/93495476,MARIS,21032185,N,Y,38.6314802,-90.5919472
PAST SALE,June-5-2019,Single Family Residential,16488 Walnut Rail Rd,Chesterfield,MO,63005,799900,5,3.5,Kehrs Mill Trails,4438,131116,1977,,180,92,Sold,,,https://www.redfin.com/MO/Chesterfield/16488-Walnut-Rail-Rd-63005/home/93484772,MARIS,19017564,N,Y,38.6398507,-90.6020194
PAST SALE,August-5-2020,Single Family Residential,220 Woodcliffe Place Dr,Chesterfield,MO,63005,745000,6,4.5,Wildhorse Springs,5562,19602,2006,,134,33,Sold,,,https://www.redfin.com/MO/Chesterfield/220-Woodcliffe-Place-Dr-63005/home/93476450,MARIS,20042391,N,Y,38.6596386,-90.5928533
PAST SALE,June-30-2022,Single Family Residential,2151 Quaethem Dr,Wildwood,MO,63005,755000,4,3.0,Quaethem Farm Estates,3561,138956,1989,,212,,Sold,,,https://www.redfin.com/MO/Wildwood/2151-Quaethem-Dr-63005/home/93495649,MARIS,22023392,N,Y,38.624301,-90.6135702
PAST SALE,August-19-2022,Single Family Residential,16481 Wilson Farm Dr,Chesterfield,MO,63005,885000,5,5.5,Wilson Farm Estates 8 A Sec Of,5170,31799,1988,,171,,Sold,,,https://www.redfin.com/MO/Chesterfield/16481-Wilson-Farm-Dr-63005/home/93484469,MARIS,22007339,N,Y,38.6403096,-90.5918917
PAST SALE,April-29-2021,Single Family Residential,194 Fick Farm Rd,Chesterfield,MO,63005,750000,4,3.5,Riverscene Estates,4843,130680,1999,,155,29,Sold,,,https://www.redfin.com/MO/Chesterfield/194-Fick-Farm-Rd-63005/home/62740021,MARIS,21012481,N,Y,38.6504398,-90.6588886
PAST SALE,June-21-2021,Single Family Residential,2766 Wynncrest Manor Dr,Wildwood,MO,63005,799000,5,5.0,Wynncrest Manor,6870,41818,2002,,116,,Sold,,,https://www.redfin.com/MO/Wildwood/2766-Wynncrest-Manor-Dr-63005/home/93318578,MARIS,21026844,N,Y,38.6073732,-90.6060221
PAST SALE,August-5-2022,Single Family Residential,1719 Baxter Forest Valley Ct,Chesterfield,MO,63005,770000,4,3.5,Forest Three The,4174,13068,1990,,184,,Sold,,,https://www.redfin.com/MO/Chesterfield/1719-Baxter-Forest-Valley-Ct-63005/home/93485013,MARIS,22039404,N,Y,38.6422669,-90.5772488
PAST SALE,October-7-2022,Single Family Residential,17739 Hornbean Dr,Wildwood,MO,63005,730000,6,4.5,Wildhorse,4826,23958,1995,,151,67,Sold,,,https://www.redfin.com/MO/Wildwood/17739-Hornbean-Dr-63005/home/93485310,MARIS,22050704,N,Y,38.6412924,-90.6388889
PAST SALE,July-2-2021,Single Family Residential,2742 Wynncrest Mnr,Wildwood,MO,63005,799000,4,3.5,Wynncrest One,5200,33106,2004,,154,54,Sold,,,https://www.redfin.com/MO/Wildwood/2742-Wynncrest-Manor-Dr-63005/home/86409412,MARIS,21010760,N,Y,38.6086097,-90.6046902
PAST SALE,June-3-2022,Single Family Residential,1848 Chamfers Farm Ct,Chesterfield,MO,63005,800000,5,3.5,Chesterfield Meadow,5837,37462,1979,,137,29,Sold,,,https://www.redfin.com/MO/Chesterfield/1848-Chamfers-Farm-Ct-63005/home/93484730,MARIS,22022179,N,Y,38.6397291,-90.5768051
PAST SALE,December-17-2020,Single Family Residential,1284 Fienup Lake Dr,Chesterfield,MO,63005,713448,4,3.5,Fienup Farms,3108,16871,,,230,100,Sold,,,https://www.redfin.com/MO/Chesterfield/1284-Fienup-Lake-Dr-63005/home/174343714,MARIS,20033080,N,Y,38.6563358,-90.5980315
PAST SALE,April-22-2020,Single Family Residential,18017 Tara Woods Ct,Chesterfield,MO,63005,825000,4,4.5,Tara At Wildhorse,4929,23522,2000,,167,63,Sold,,,https://www.redfin.com/MO/Chesterfield/18017-Tara-Woods-Ct-63005/home/92186519,MARIS,20000131,N,Y,38.6520609,-90.6472579
PAST SALE,November-7-2019,Single Family Residential,18006 Homestead Manor Dr,Wildwood,MO,63005,674900,4,3.5,Homestead Estates,4091,100188,,,165,100,Sold,,,https://www.redfin.com/MO/Wildwood/18006-Homestead-Manor-Dr-63005/home/62779017,MARIS,19032094,N,Y,38.5992878,-90.6719865
PAST SALE,July-2-2019,Single Family Residential,1802 Elmsford Ln,Chesterfield,MO,63005,849000,5,6.0,Wilson Manors II 3,7203,43560,1989,,118,,Sold,,,https://www.redfin.com/MO/Chesterfield/1802-Elmsford-Ln-63005/home/93484670,MARIS,19022604,N,Y,38.6413184,-90.5867882
PAST SALE,May-26-2021,Single Family Residential,1654 Trotting Trl,Chesterfield,MO,63005,795000,4,4.5,Kehrs Mill Trails 3,4239,102366,1980,,188,79,Sold,,,https://www.redfin.com/MO/Chesterfield/1654-Trotting-Trail-Rd-63005/home/93484841,MARIS,21020060,N,Y,38.6404601,-90.6065585
PAST SALE,November-27-2019,Single Family Residential,1044 Wilmas Farm Dr,Chesterfield,MO,63005,729900,4,3.5,The Arbors at Wilmas Farm,3603,22216,,,203,108,Sold,,,https://www.redfin.com/MO/Chesterfield/1044-Wilmas-Farm-Dr-63005/home/166811438,MARIS,19066733,N,Y,38.6569039,-90.6303735
PAST SALE,August-6-2021,Single Family Residential,15 Crownhill Ln,Chesterfield,MO,63005,894900,4,3.5,Forest Hills Club Estates Area 1,3535,46609,1966,,253,42,Sold,,,https://www.redfin.com/MO/Chesterfield/15-Crownhill-Ln-63005/home/93506325,MARIS,21038463,N,Y,38.6164913,-90.5860487
PAST SALE,June-12-2019,Single Family Residential,16688 Kehrsgrove,Chesterfield,MO,63005,750000,5,4.0,Dunhill Farm,4994,47480,1989,,150,125,Sold,,,https://www.redfin.com/MO/Chesterfield/16688-Kehrsgrove-Dr-63005/home/62698473,MARIS,19026756,N,Y,38.6275423,-90.5927978
PAST SALE,March-25-2022,Single Family Residential,16312 Wilson Creek Ct,Chesterfield,MO,63005,875000,6,4.5,Manors At Clarkson Valley 2 The,4834,54014,1986,,181,50,Sold,,,https://www.redfin.com/MO/Chesterfield/16312-Wilson-Creek-Ct-63005/home/93495527,MARIS,21067297,N,Y,38.6310743,-90.5870841
PAST SALE,August-25-2020,Single Family Residential,17424 Windridge Ests,Chesterfield,MO,63005,735000,4,3.5,Windridge Estates,4514,23087,1996,,163,83,Sold,,,https://www.redfin.com/MO/Chesterfield/17424-Windridge-Estates-Ct-63005/home/93477308,MARIS,20035178,N,Y,38.6583167,-90.6265977
PAST SALE,February-25-2021,Single Family Residential,16959 Pine Summit (4 BD 3.5 Ba) Dr,Chesterfield,MO,63005,799900,4,3.5,Fienup Farms,3522,12197,,,227,125,Sold,,,https://www.redfin.com/MO/Chesterfield/16959-Pine-Summit-Dr-63005/home/170229219,MARIS,20083514,N,Y,38.6559863,-90.6019356
PAST SALE,October-31-2021,Single Family Residential,1314 Katsura Ct,Wildwood,MO,63005,719000,5,4.5,Wildhorse,4300,25265,1994,,167,67,Sold,,,https://www.redfin.com/MO/Wildwood/1314-Katsura-Ct-63005/home/93485378,MARIS,21061162,N,Y,38.6406212,-90.6265977
PAST SALE,July-25-2018,Single Family Residential,1312 Homestead Heights Dr,Wildwood,MO,63005,699900,4,3.5,Homestead Estates,,43560,,,,100,Sold,,,https://www.redfin.com/MO/Wildwood/1312-Homestead-Heights-Dr-63005/home/62779019,MARIS,18024866,N,Y,38.598714,-90.669621
PAST SALE,September-25-2019,Single Family Residential,16359 Champion Dr,Chesterfield,MO,63005,799900,7,5.0,Sea Beauty Farm,6324,22651,1995,,126,67,Sold,,,https://www.redfin.com/MO/Chesterfield/16359-Champion-Dr-63005/home/93495521,MARIS,19035321,N,Y,38.6311466,-90.5849208
PAST SALE,November-7-2018,Single Family Residential,334 Oak Stand Ct,Chesterfield,MO,63005,789000,4,3.5,Reserve At Chesterfield Village,4819,10934,2012,,164,82,Sold,,,https://www.redfin.com/MO/Chesterfield/334-Oak-Stand-Ct-63005/home/93329929,MARIS,18070384,N,Y,38.6576656,-90.5778403
PAST SALE,December-28-2021,Single Family Residential,1519 Honey Locust,Wildwood,MO,63005,775000,6,4.5,Wildhorse Village I One,5100,26572,1994,,152,67,Sold,,,https://www.redfin.com/MO/Wildwood/1519-Honey-Locust-Ct-63005/home/62732108,MARIS,21062468,N,Y,38.6371457,-90.6331964
PAST SALE,,Single Family Residential,16405 Quiet Creek Ct,Clarkson Valley,MO,63005,,4,3.5,,2675,131987,1978,,,,Sold,,,https://www.redfin.com/MO/Chesterfield/16405-Quiet-Creek-Ct-63005/home/93484787,MARIS,,N,Y,38.6382376,-90.5965519
PAST SALE,September-2-2021,Single Family Residential,2233 Ridgley Woods,Chesterfield,MO,63005,700000,4,3.5,Pleasant Valley Forest 3,3802,49658,1995,,184,75,Sold,,,https://www.redfin.com/MO/Chesterfield/2233-Ridgley-Woods-Dr-63005/home/93495748,MARIS,21044484,N,Y,38.625622,-90.6037653
PAST SALE,March-11-2021,Single Family Residential,304 Pine Bend Dr,Wildwood,MO,63005,820000,5,4.5,Pine Creek,4996,27443,2001,,164,42,Sold,,,https://www.redfin.com/MO/Wildwood/304-Pine-Bend-Dr-63005/home/62744480,MARIS,21001196,N,Y,38.6462582,-90.6558325
PAST SALE,March-5-2020,Single Family Residential,276 Pennington Ln,Chesterfield,MO,63005,850000,4,3.5,Forest Hills Club Estates,4716,43560,1979,,180,42,Sold,,,https://www.redfin.com/MO/Chesterfield/276-Pennington-Ln-63005/home/93505600,MARIS,19084166,N,Y,38.6088884,-90.5942402
PAST SALE,May-15-2019,Single Family Residential,17664 Wildridge Dr,Wildwood,MO,63005,765000,5,4.5,Wildhorse Village,5146,23087,1994,,149,67,Sold,,,https://www.redfin.com/MO/Wildwood/17664-Wildridge-Dr-63005/home/62758138,MARIS,19011393,N,Y,38.6402784,-90.629411
PAST SALE,September-16-2020,Single Family Residential,1343 Countryside Manor Pl,Chesterfield,MO,63005,760000,4,3.5,Countryside At Chesterfield Three,4200,27007,1995,,181,50,Sold,,,https://www.redfin.com/MO/Chesterfield/1343-Countryside-Manor-Pl-63005/home/93476725,MARIS,20030219,N,Y,38.6528601,-90.6206015
PAST SALE,October-21-2021,Single Family Residential,113 Chippenham Ln,Chesterfield,MO,63005,794900,4,3.0,Forest Hills Club Estates,4910,50094,1975,,162,,Sold,,,https://www.redfin.com/MO/Chesterfield/113-Chippenham-Ln-63005/home/93506217,MARIS,21057218,N,Y,38.6185815,-90.5941848
PAST SALE,October-19-2021,Single Family Residential,16205 Wynncrest Ridge Ct,Wildwood,MO,63005,799000,6,5.5,Wynncrest,6700,40337,2003,,119,63,Sold,,,https://www.redfin.com/MO/Wildwood/16205-Wynncrest-Ridge-Ct-63005/home/93318530,MARIS,21052797,N,Y,38.6117961,-90.6049089
PAST SALE,June-29-2018,Single Family Residential,16474 Saddle Creek Rd,Clarkson Valley,MO,63005,790000,5,3.5,Kehrs Mill Trails 1 Lts 64 & 65,5400,132858,1976,,146,92,Sold,,,https://www.redfin.com/MO/Chesterfield/16474-Saddle-Creek-Rd-63005/home/93484797,MARIS,18021887,N,Y,38.6406124,-90.6008243
PAST SALE,May-20-2020,Single Family Residential,16611 Sterling Pointe Ct,Chesterfield,MO,63005,759000,4,3.5,Dunhill Farm,5241,37026,1988,,145,125,Sold,,,https://www.redfin.com/MO/Chesterfield/16611-Sterling-Pointe-Ct-63005/home/93494823,MARIS,20015509,N,Y,38.6269027,-90.5896173
PAST SALE,August-12-2021,Single Family Residential,19123 Babler Forest Rd,Wildwood,MO,63005,837500,5,4.5,Kangaroo Court Lts 1 Thru 3 &,4478,144184,2005,,187,,Sold,,,https://www.redfin.com/MO/Wildwood/19123-Babler-Forest-Rd-63005/home/93627931,MARIS,21028367,N,Y,38.618049,-90.71756
PAST SALE,February-21-2023,Single Family Residential,17707 Hornbean Dr,Wildwood,MO,63005,750000,5,4.5,Wildhorse Village H,4996,39204,1992,,150,83,Sold,,,https://www.redfin.com/MO/Wildwood/17707-Hornbean-Dr-63005/home/93485316,MARIS,22076749,N,Y,38.6397673,-90.6368339
PAST SALE,August-15-2018,Single Family Residential,243 Fick Farm Rd,Chesterfield,MO,63005,825000,5,4.5,Wild Horse Heights,4000,130680,1994,,206,,Sold,,,https://www.redfin.com/MO/Chesterfield/243-Fick-Farm-Rd-63005/home/93477408,MARIS,18032202,N,Y,38.650498,-90.65325
PAST SALE,February-8-2021,Single Family Residential,438 Pine Bend Dr,Wildwood,MO,63005,810000,4,4.5,Pine Creek,5034,47045,1998,,161,42,Sold,,,https://www.redfin.com/MO/Wildwood/438-Pine-Bend-Dr-63005/home/93485924,MARIS,20069681,N,Y,38.639314,-90.6559251
PAST SALE,September-28-2018,Single Family Residential,1053 Wilmas Farm Dr,Chesterfield,MO,63005,880900,4,3.5,The Arbors at Wilmas Farm,3802,24986,,,232,108,Sold,,,https://www.redfin.com/MO/Chesterfield/1053-Wilmas-Farm-Dr-63005/home/145548479,MARIS,18034783,N,Y,38.6558398,-90.6302254
PAST SALE,February-20-2019,Single Family Residential,1059 Greystone Manor Pkwy,Chesterfield,MO,63005,750000,4,4.5,Greystone One,5277,38333,1997,,142,50,Sold,,,https://www.redfin.com/MO/Chesterfield/1059-Greystone-Manor-Pkwy-63005/home/93476947,MARIS,18090573,N,Y,38.6490094,-90.6360008
PAST SALE,March-29-2019,Single Family Residential,17705 Sugarberry Ct,Chesterfield,MO,63005,729900,4,4.5,Wildhorse Village A,5276,28750,1995,,138,67,Sold,,,https://www.redfin.com/MO/Chesterfield/17705-Sugarberry-Ct-63005/home/93477049,MARIS,19002591,N,Y,38.651912,-90.6332426
PAST SALE,August-22-2022,Single Family Residential,15 Wild Horse Way,Chesterfield,MO,63005,845000,4,4.5,Wildhorse Creek Forest Lts 15 Thru 17,5320,146797,2002,,159,67,Sold,,,https://www.redfin.com/MO/Chesterfield/15-Wild-Horse-Way-63005/home/93485642,MARIS,22032153,N,Y,38.6470285,-90.6681512
PAST SALE,August-2-2019,Single Family Residential,16304 Wynncrest Falls Way,Wildwood,MO,63005,740000,5,4.5,Wynncrest - Five,3673,20909,2010,,201,63,Sold,,,https://www.redfin.com/MO/Wildwood/16304-Wynncrest-Falls-Way-63005/home/93325653,MARIS,19034113,N,Y,38.6113781,-90.6096404
PAST SALE,November-18-2022,Single Family Residential,16632 Benton Taylor Dr,Chesterfield,MO,63005,725000,3,3.0,Estates at Baxter Pointe,4908,13939,1999,,148,42,Sold,,,https://www.redfin.com/MO/Chesterfield/16632-Benton-Taylor-Dr-63005/home/93626453,MARIS,22047436,N,Y,38.6535242,-90.5829241
PAST SALE,December-10-2020,Single Family Residential,16629 Wycliffe Place Dr,Wildwood,MO,63005,725000,4,4.5,Wycliffe,5852,13939,2011,,124,63,Sold,,,https://www.redfin.com/MO/Wildwood/16629-Wycliffe-Place-Dr-63005/home/93322003,MARIS,20055737,N,Y,38.6224668,-90.6194912
PAST SALE,July-20-2018,Single Family Residential,2634 Wynncrest Falls Dr,Chesterfield,MO,63005,745000,4,3.5,Wynncrest - Five,5191,42689,2005,,144,54,Sold,,,https://www.redfin.com/MO/Wildwood/2634-Wynncrest-Falls-Dr-63005/home/93324995,MARIS,18002624,N,Y,38.6095682,-90.6095739
PAST SALE,August-27-2021,Single Family Residential,17905 Homestead Bluffs Dr,Wildwood,MO,63005,849900,5,4.5,Homestead Estates,6165,49833,2018,,138,,Sold,,,https://www.redfin.com/MO/Wildwood/17905-Homestead-Bluffs-Dr-63005/home/62779011,MARIS,21023993,N,Y,38.600216,-90.667562
PAST SALE,January-3-2020,Single Family Residential,2244 Devonsbrook,Chesterfield,MO,63005,850000,5,5.0,Dunhill Farm,5235,43560,1988,,162,125,Sold,,,https://www.redfin.com/MO/Chesterfield/2244-Devonsbrook-Dr-63005/home/93495525,MARIS,19077418,N,Y,38.6283786,-90.5869303
PAST SALE,April-22-2021,Single Family Residential,16956 Pine Summit Dr,Chesterfield,MO,63005,722327,4,2.5,Fienup Farms,2988,,,,242,125,Sold,,,https://www.redfin.com/MO/Wildwood/16956-Pine-Summit-Dr-63005/home/174116484,MARIS,21000677,N,Y,38.6561362,-90.6006749
PAST SALE,December-12-2019,Single Family Residential,17996 Greycliff Dr,Chesterfield,MO,63005,735000,4,3.5,Greystone Four,4482,34848,1999,,164,50,Sold,,,https://www.redfin.com/MO/Chesterfield/17996-Greycliff-Dr-63005/home/86158895,MARIS,19063163,N,Y,38.6479279,-90.639037
PAST SALE,August-4-2021,Single Family Residential,1444 Carriage Crossing Ln,Chesterfield,MO,63005,665000,5,4.5,Country Place At Chesterfield,4396,28750,1988,,151,38,Sold,,,https://www.redfin.com/MO/Chesterfield/1444-Carriage-Crossing-Ln-63005/home/93484918,MARIS,21028221,N,Y,38.6480597,-90.6104064
PAST SALE,July-26-2018,Single Family Residential,340 Willow Weald Path,Chesterfield,MO,63005,789000,6,4.5,The Reserve@Chesterfield Village,4266,10890,2014,,185,,Sold,,,https://www.redfin.com/MO/Chesterfield/340-Willow-Weald-Path-63005/home/103205593,MARIS,18020847,N,Y,38.6582434,-90.576953
PAST SALE,July-2-2018,Single Family Residential,16981 Bottlebrush Ct,Chesterfield,MO,63005,769900,4,3.5,The Arbors At Kehrs Mill,,21780,,,,108,Sold,,,https://www.redfin.com/MO/Chesterfield/16981-Bottlebrush-Ct-63005/home/144800424,MARIS,18006478,N,Y,38.6422078,-90.6209716
PAST SALE,November-19-2021,Single Family Residential,1100 Windridge Estates Ln,Chesterfield,MO,63005,750000,5,3.5,Windridge Estates,4572,24394,2000,,164,83,Sold,,,https://www.redfin.com/MO/Chesterfield/1100-Windridge-Estates-Ln-63005/home/93477307,MARIS,21057320,N,Y,38.657989,-90.6265977
PAST SALE,September-12-2019,Single Family Residential,406 Oak Stand Path,Chesterfield,MO,63005,759900,4,4.5,Reserve At Chesterfield Village,5308,12023,2010,,143,82,Sold,,,https://www.redfin.com/MO/Chesterfield/406-Oak-Stand-Path-63005/home/93328574,MARIS,19033613,N,Y,38.656614,-90.5793007
PAST SALE,November-13-2020,Single Family Residential,15 Hillock Ln,Clarkson Valley,MO,63005,899900,4,4.0,Forest Hills Club Estates Area 4 Of,4687,69740,1966,,192,42,Sold,,,https://www.redfin.com/MO/Chesterfield/15-Hillock-Ln-63005/home/93506238,MARIS,20050939,N,Y,38.6162258,-90.5899686
PAST SALE,November-19-2020,Single Family Residential,425 Willow Weald Path,Chesterfield,MO,63005,775000,4,4.5,Reserve At Chesterfield Village,5192,14810,2010,,149,82,Sold,,,https://www.redfin.com/MO/Chesterfield/425-Willow-Weald-Path-63005/home/93328560,MARIS,20059871,N,Y,38.6555366,-90.5776924
PAST SALE,May-6-2019,Single Family Residential,961 Tara Oaks Dr,Chesterfield,MO,63005,847500,4,4.5,Tara At Wildhorse,6057,24394,2000,,140,,Sold,,,https://www.redfin.com/MO/Chesterfield/961-Tara-Oaks-Dr-63005/home/93625408,MARIS,19005105,N,Y,38.6528595,-90.6472765
PAST SALE,January-11-2019,Single Family Residential,16360 Wynncrest Fls,Wildwood,MO,63005,750000,5,4.5,Wynncrest - Five,4698,23087,2010,,160,54,Sold,,,https://www.redfin.com/MO/Wildwood/16360-Wynncrest-Falls-Way-63005/home/69368970,MARIS,18070863,N,Y,38.6104554,-90.6126048
PAST SALE,May-9-2019,Single Family Residential,18136 Dawns Trl,Wildwood,MO,63005,895000,5,4.5,Three Sisters Farm 1,6220,130680,2002,,144,83,Sold,,,https://www.redfin.com/MO/Wildwood/18136-Dawns-Trl-63005/home/93627712,MARIS,19003623,N,Y,38.6055179,-90.6756369
PAST SALE,August-21-2020,Single Family Residential,1209 Bonhomme Branch Ct,Chesterfield,MO,63005,865900,4,3.5,Greystone,4037,27878,1999,,214,50,Sold,,,https://www.redfin.com/MO/Chesterfield/1209-Bonhomme-Branch-Ct-63005/home/62757131,MARIS,20026236,N,Y,38.645374,-90.641629
PAST SALE,August-28-2020,Single Family Residential,1316 Bentley Place Dr,Chesterfield,MO,63005,729900,4,4.5,Bentley Place,4975,33106,1996,,147,,Sold,,,https://www.redfin.com/MO/Chesterfield/1316-Bentley-Place-Dr-63005/home/93476801,MARIS,20031017,N,Y,38.6542451,-90.606392
PAST SALE,May-16-2019,Single Family Residential,1737 Horseshoe Ridge Rd,Chesterfield,MO,63005,849000,6,4.0,Kehrs Mill Trails,5348,133729,1978,,159,,Sold,,,https://www.redfin.com/MO/Chesterfield/1737-Horseshoe-Ridge-Rd-63005/home/93484759,MARIS,19000779,N,Y,38.6367517,-90.5987095
PAST SALE,March-30-2023,Single Family Residential,2013 Kehrs Mill Rd,Chesterfield,MO,63005,860000,5,5.5,Kehrs Mill Estates 6,5560,60113,2002,,155,63,Sold,,,https://www.redfin.com/MO/Chesterfield/2013-Kehrs-Mill-Rd-63005/home/62751149,MARIS,22068691,N,Y,38.6334464,-90.6040983
PAST SALE,May-5-2023,Single Family Residential,240 Whiting Ln,Chesterfield,MO,63005,779000,4,3.5,Forest Hills Club Estates Area 6 Sec 4,4198,36590,1982,,186,42,Sold,,,https://www.redfin.com/MO/Chesterfield/240-Whiting-Ln-63005/home/93505630,MARIS,22072663,N,Y,38.608778,-90.5917623
PAST SALE,October-30-2018,Single Family Residential,17709 Sugarberry Ct,Chesterfield,MO,63005,895000,4,5.5,Wildhorse Village A,3983,26136,1991,,225,67,Sold,,,https://www.redfin.com/MO/Chesterfield/17709-Sugarberry-Ct-63005/home/62692691,MARIS,18050862,N,Y,38.6518971,-90.6337091
PAST SALE,June-12-2020,Single Family Residential,2234 Whitney Pointe Dr,Chesterfield,MO,63005,749900,6,6.0,Dunhill Farm,7216,43996,1989,,104,125,Sold,,,https://www.redfin.com/MO/Chesterfield/2234-Whitney-Pointe-Dr-63005/home/93495487,MARIS,20001965,N,Y,38.6292585,-90.5896727
PAST SALE,May-30-2018,Single Family Residential,1309 Eaglewinds Ct,Chesterfield,MO,63005,849900,5,4.5,Eagle Crest Estates,5844,22651,2003,,145,56,Sold,,,https://www.redfin.com/MO/Chesterfield/1309-Eaglewinds-Ct-63005/home/93626823,MARIS,18005055,N,Y,38.6532947,-90.600029
PAST SALE,July-16-2019,Single Family Residential,201 Fick Farm Rd,Chesterfield,MO,63005,849000,5,6.0,Wild Horse Heights,7494,261360,1998,,113,41,Sold,,,https://www.redfin.com/MO/Chesterfield/201-Fick-Farm-Rd-63005/home/93477400,MARIS,19005500,N,Y,38.6504777,-90.65819
PAST SALE,October-29-2018,Single Family Residential,1406 Country Lake Estates Dr,Chesterfield,MO,63005,798000,4,5.0,Country Lake Estates,5709,32234,1999,,140,63,Sold,,,https://www.redfin.com/MO/Chesterfield/1406-Country-Lake-Estates-Dr-63005/home/62760757,MARIS,18044239,N,Y,38.6494951,-90.6217859
PAST SALE,July-30-2019,Single Family Residential,18129 Big Pine Ct,Wildwood,MO,63005,775000,4,4.0,Pine Creek,4884,24829,1997,,159,42,Sold,,,https://www.redfin.com/MO/Wildwood/18129-Big-Pine-Ct-63005/home/93486007,MARIS,19007110,N,Y,38.6402993,-90.6547383
PAST SALE,March-27-2019,Single Family Residential,2770 Wynncrest Manor Dr,Wildwood,MO,63005,839000,6,5.5,Wynncrest One,7200,27443,2002,,117,54,Sold,,,https://www.redfin.com/MO/Wildwood/2770-Wynncrest-Manor-Dr-63005/home/93318495,MARIS,18087882,N,Y,38.6075966,-90.6064105
PAST SALE,June-28-2019,Single Family Residential,1021 Wilmas Hollow Dr,Chesterfield,MO,63005,699900,4,3.5,The Arbors at Wilmas Farm,4100,22216,,,171,108,Sold,,,https://www.redfin.com/MO/Chesterfield/1021-Wilmas-Hollow-Dr-63005/home/168278335,MARIS,18087337,N,Y,38.6571525,-90.6298552
PAST SALE,December-17-2018,Single Family Residential,1651 Prairie Cord Dr,Chesterfield,MO,63005,795000,4,3.5,Arbors At Kehrs Mill,3300,26354,,,241,108,Sold,,,https://www.redfin.com/MO/Chesterfield/1651-Prairie-Cord-Dr-63005/home/145545696,MARIS,18034164,N,Y,38.6410588,-90.6213417
PAST SALE,November-15-2019,Single Family Residential,1118 Wilmas Valley Ct,Chesterfield,MO,63005,749900,4,3.5,The Arbors at Wilmas Farm,4091,22956,,,183,,Sold,,,https://www.redfin.com/MO/Chesterfield/1118-Wilmas-Valley-Ct-63005/home/168278248,MARIS,19032073,N,Y,38.6536364,-90.6286706
PAST SALE,April-30-2021,Single Family Residential,1809 Elmsford Ln,Chesterfield,MO,63005,729900,5,4.0,Wilson Manors II 3,4412,23958,1988,,165,38,Sold,,,https://www.redfin.com/MO/Chesterfield/1809-Elmsford-Ln-63005/home/85247345,MARIS,20076506,N,Y,38.640847,-90.5868437
PAST SALE,April-24-2020,Single Family Residential,16951 Pine Summit (lot 104b),Chesterfield,MO,63005,719900,3,2.5,Fienup Farms,2572,12197,,,280,125,Sold,,,https://www.redfin.com/MO/Chesterfield/16951-Pine-Summit-Dr-63005/home/169118445,MARIS,19070979,N,Y,38.6565705,-90.6003289
PAST SALE,September-3-2020,Single Family Residential,17412 Windridge Estates Ct,Chesterfield,MO,63005,735000,4,5.5,Windridge Estates,5422,22651,1999,,136,83,Sold,,,https://www.redfin.com/MO/Chesterfield/17412-Windridge-Estates-Ct-63005/home/93477310,MARIS,20016537,N,Y,38.6585464,-90.6257648
PAST SALE,August-15-2019,Single Family Residential,755 Babler Park Dr,Wildwood,MO,63005,900000,4,6.0,Essen Spring Farm,5334,130680,2001,,169,,Sold,,,https://www.redfin.com/MO/Wildwood/755-Babler-Park-Dr-63005/home/93631152,MARIS,19000129,N,Y,38.6267524,-90.6746733
PAST SALE,May-30-2018,Single Family Residential,1630 Sideoats Ct,Chesterfield,MO,63005,739900,4,2.5,The Arbors at Kehrs Mill,,22216,,,,,Sold,,,https://www.redfin.com/MO/Chesterfield/1630-Sideoats-Ct-63005/home/143713871,MARIS,17071507,N,Y,38.6409062,-90.6191952
PAST SALE,September-25-2018,Single Family Residential,17934 Bonhomme Ridge Ct,Chesterfield,MO,63005,849000,4,4.5,Greystone,6322,30492,1998,,134,46,Sold,,,https://www.redfin.com/MO/Chesterfield/17934-Bonhomme-Ridge-Ct-63005/home/93477036,MARIS,18018018,N,Y,38.6498117,-90.639111
PAST SALE,June-10-2021,Single Family Residential,2743 Wynncrest Manor Dr,Wildwood,MO,63005,769900,5,3.5,Wynncrest,4720,17424,2004,,163,63,Sold,,,https://www.redfin.com/MO/Wildwood/2743-Wynncrest-Manor-Dr-63005/home/93318500,MARIS,20059746,N,Y,38.6081968,-90.6052821
PAST SALE,March-22-2019,Single Family Residential,1629 Broken Reins Ct,Chesterfield,MO,63005,725000,5,4.0,Kehrs Mill Trails,4867,97139,1979,,149,92,Sold,,,https://www.redfin.com/MO/Chesterfield/1629-Broken-Reins-Ct-63005/home/93484825,MARIS,18057149,N,Y,38.6408916,-90.6102584
PAST SALE,May-14-2019,Single Family Residential,1084 Greystone Manor Pkwy,Chesterfield,MO,63005,830000,5,4.5,Greystone Three,4958,23087,1997,,167,46,Sold,,,https://www.redfin.com/MO/Chesterfield/1084-Greystone-Manor-Pkwy-63005/home/93485475,MARIS,18070147,N,Y,38.6472889,-90.6360008
PAST SALE,November-5-2018,Single Family Residential,1310 Bentley Place Pl,Chesterfield,MO,63005,749900,5,5.0,Bentley Place,6376,29185,1997,,118,50,Sold,,,https://www.redfin.com/MO/Chesterfield/1310-Bentley-Place-Dr-63005/home/93476802,MARIS,18021061,N,Y,38.65449,-90.60654
PAST SALE,January-17-2019,Single Family Residential,2020 Kingspointe Dr,Clarkson Valley,MO,63005,895000,5,5.0,Kingspointe,4400,65340,1990,,203,92,Sold,,,https://www.redfin.com/MO/Chesterfield/2020-Kingspointe-Dr-63005/home/81563162,MARIS,18037075,N,Y,38.6347795,-90.599807
PAST SALE,November-27-2018,Single Family Residential,17927 White Robin Ct,Chesterfield,MO,63005,849000,5,5.5,Greystone,7799,27007,1999,,109,50,Sold,,,https://www.redfin.com/MO/Chesterfield/17927-White-Robin-Ct-63005/home/93627218,MARIS,18016891,N,Y,38.6465283,-90.6402959
PAST SALE,July-2-2020,Single Family Residential,17601 Lasiandra Dr,Wildwood,MO,63005,839900,7,5.5,Wildhorse Village L Two,7200,32670,1996,,117,67,Sold,,,https://www.redfin.com/MO/Wildwood/17601-Lasiandra-Dr-63005/home/93496344,MARIS,19071993,N,Y,38.6341972,-90.6365007
PAST SALE,November-30-2022,Single Family Residential,1901 Shiloh Oaks Dr,Wildwood,MO,63005,799000,4,3.0,Shiloh Oaks Farm,3142,521413,1970,,254,33,Sold,,,https://www.redfin.com/MO/Wildwood/1901-Shiloh-Oaks-Dr-63005/home/87952888,MARIS,22000017,N,Y,38.593429,-90.682028
PAST SALE,June-1-2018,Single Family Residential,17914 White Robin Ct,Chesterfield,MO,63005,749900,5,6.0,Greystone,5226,54886,1998,,143,67,Sold,,,https://www.redfin.com/MO/Chesterfield/17914-White-Robin-Ct-63005/home/62758538,MARIS,17042486,N,Y,38.6472648,-90.6404441
PAST SALE,March-9-2020,Single Family Residential,966 Silver Buck Ln,Chesterfield,MO,63005,759110,4,3.5,Bur Oaks,3445,,,,220,,Sold,,,https://www.redfin.com/MO/Chesterfield/966-Silver-Buck-Ln-63005/home/108382279,MARIS,19005003,N,Y,38.6551776,-90.6392814
PAST SALE,December-27-2018,Single Family Residential,234 Monarch Hl,Chesterfield,MO,63005,835000,5,5.0,Lions Head Lts 1 & 2 Bdy Adj,5652,284882,1992,,148,,Sold,,,https://www.redfin.com/MO/Wildwood/234-Monarch-Hill-Dr-63005/home/93485764,MARIS,17049028,N,Y,38.6442059,-90.676551
PAST SALE,June-19-2019,Single Family Residential,16910 Bottlebrush Ct Lot 3,Chesterfield,MO,63005,969000,4,3.5,Arbors at Kehrs Mill,3000,21780,,,323,79,Sold,,,https://www.redfin.com/MO/Chesterfield/16910-Bottlebrush-Ct-63005/unit-3/home/167039159,MARIS,17027268,N,Y,38.6447992,-90.6142327
PAST SALE,,Single Family Residential,1331 Countryside Manor Pl,Chesterfield,MO,63005,850000,4,3.5,,3884,23958,1994,,219,,,,,https://www.redfin.com/MO/Chesterfield/1331-Countryside-Manor-Pl-63005/home/93476712,,,N,Y,38.6538212,-90.6208791
PAST SALE,,Single Family Residential,157 Herworth Dr,Chesterfield,MO,63005,785000,5,4.5,,3534,49223,1978,,222,,,,,https://www.redfin.com/MO/Chesterfield/157-Herworth-Dr-63005/home/93505749,,,N,Y,38.6136913,-90.5927608
PAST SALE,,Single Family Residential,1109 Patchwork Flds,Chesterfield,MO,63005,799930,4,4.5,,3977,10986,2021,,201,,,,,https://www.redfin.com/MO/Chesterfield/1109-Patchwork-Flds-63005/home/175760048,,,N,Y,38.6617458,-90.5972917
PAST SALE,,Single Family Residential,18734 Wild Horse Creek Rd,Wildwood,MO,63005,850000,4,4.5,,4975,130375,1988,,171,,,,,https://www.redfin.com/MO/Wildwood/18734-Wild-Horse-Creek-Rd-63005/home/93630843,,,N,Y,38.6419031,-90.6902417
PAST SALE,,Single Family Residential,1143 Patchwork Flds,Chesterfield,MO,63005,773415,4,3.5,,3628,10528,2020,,213,,,,,https://www.redfin.com/MO/Chesterfield/1143-Patchwork-Flds-63005/home/175760052,,,N,Y,38.661095,-90.596404
PAST SALE,,Single Family Residential,16648 Wycliffe Place Dr,Wildwood,MO,63005,790000,5,5.0,,5699,19602,2004,,139,,,,,https://www.redfin.com/MO/Wildwood/16648-Wycliffe-Place-Dr-63005/home/93320789,,,N,Y,38.6216418,-90.6209114
PAST SALE,,Single Family Residential,319 Oak Stand Ct,Chesterfield,MO,63005,817000,4,4.5,,5390,11718,2012,,152,,,,,https://www.redfin.com/MO/Chesterfield/319-Oak-Stand-Ct-63005/home/93329918,,,N,Y,38.6579085,-90.5784318
PAST SALE,,Single Family Residential,1152 Patchwork Flds,Chesterfield,MO,63005,834152,4,3.5,,3732,12502,2020,,224,,,,,https://www.redfin.com/MO/Chesterfield/1152-Patchwork-Flds-63005/home/175759905,,,N,Y,38.66052,-90.5962598
PAST SALE,,Single Family Residential,1120 Patchwork Flds,Chesterfield,MO,63005,723044,4,3.5,,3446,12062,2021,,210,,,,,https://www.redfin.com/MO/Chesterfield/1120-Patchwork-Flds-63005/home/175759898,,,N,Y,38.6620585,-90.5962006
PAST SALE,,Single Family Residential,1093 Wilmas Farm Dr,Chesterfield,MO,63005,829320,4,4.5,,6208,22782,2018,,134,,,,,https://www.redfin.com/MO/Chesterfield/1093-Wilmas-Farm-Dr-63005/home/168278254,,,N,Y,38.6540504,-90.6278562
PAST SALE,,Single Family Residential,16964 Pine Summit Dr,Wildwood,MO,63005,694432,4,3.5,,4028,10955,2021,,172,,,,,https://www.redfin.com/MO/Wildwood/16964-Pine-Summit-Dr-63005/home/174343679,,,N,Y,38.6561515,-90.6011992
PAST SALE,,Single Family Residential,1308 Homestead Heights Dr,Wildwood,MO,63005,703000,4,3.5,,6874,44126,2018,,102,,,,,https://www.redfin.com/MO/Wildwood/1308-Homestead-Heights-Dr-63005/home/62779013,,,N,Y,38.599113,-90.6694349
PAST SALE,,Single Family Residential,16913 Deer Antler Ct,Chesterfield,MO,63005,768005,4,3.5,,3644,9723,2020,,211,,,,,https://www.redfin.com/MO/Chesterfield/16913-Deer-Antler-Ct-63005/home/174343702,,,N,Y,38.6585536,-90.5972215
PAST SALE,,Single Family Residential,1156 Patchwork Flds,Chesterfield,MO,63005,766622,4,3.5,,3700,11805,2020,,207,,,,,https://www.redfin.com/MO/Chesterfield/1156-Patchwork-Flds-63005/home/175760035,,,N,Y,38.6604188,-90.5964965
PAST SALE,,Single Family Residential,16916 Deer Antler Ct,Chesterfield,MO,63005,758372,4,3.5,,3595,9827,2019,,211,,,,,https://www.redfin.com/MO/Chesterfield/16916-Deer-Antler-Ct-63005/home/174343707,,,N,Y,38.65814,-90.5972238
PAST SALE,,Single Family Residential,16934 Pine Summit Dr,Wildwood,MO,63005,709850,4,3.5,,3644,9827,2020,,195,,,,,https://www.redfin.com/MO/Wildwood/16934-Pine-Summit-Dr-63005/home/174343723,,,N,Y,38.6561737,-90.5990694
PAST SALE,,Single Family Residential,1112 Patchwork Flds,Chesterfield,MO,63005,723163,4,3.5,,3268,12062,2020,,221,,,,,https://www.redfin.com/MO/Chesterfield/1112-Patchwork-Flds-63005/home/175760045,,,N,Y,38.6622406,-90.5966259
PAST SALE,,Single Family Residential,728 Stonebluff Ct,Chesterfield,MO,63005,715000,3,4.5,,5171,5227,2000,,138,,,,,https://www.redfin.com/MO/Chesterfield/728-Stonebluff-Ct-63005/home/93626489,,,N,Y,38.6509601,-90.5774191
PAST SALE,,Single Family Residential,1133 Wilmas Valley Ct,Chesterfield,MO,63005,779902,4,3.5,,4420,22172,2018,,176,,,,,https://www.redfin.com/MO/Chesterfield/1133-Wilmas-Valley-Ct-63005/home/146494696,,,N,Y,38.6534069,-90.6294665
